id_mutation;date_mutation;numero_disposition;nature_mutation;valeur_fonciere;adresse_numero;adresse_suffixe;adresse_nom_voie;adresse_code_voie;code_postal;code_commune;nom_commune;code_departement;ancien_code_commune;ancien_nom_commune;id_parcelle;ancien_id_parcelle;numero_volume;lot1_numero;lot1_surface_carrez;lot2_numero;lot2_surface_carrez;lot3_numero;lot3_surface_carrez;lot4_numero;lot4_surface_carrez;lot5_numero;lot5_surface_carrez;nombre_lots;code_type_local;type_local;surface_reelle_bati;nombre_pieces_principales;code_nature_culture;nature_culture;code_nature_culture_speciale;nature_culture_speciale;surface_terrain;longitude;latitude
2020-815783;2020-07-02;000001;Vente;1185000;41;;RUE CENSIER;1642;75005;75105;Paris 5e Arrondissement;75;;;75105000AU0057;;;1;;33;;;;;;;;2;2;Appartement;45;4;;;;;;2.351846;48.839848
2020-815784;2020-07-01;000001;Vente;110000;20;;RUE LAPLACE;5340;75005;75105;Paris 5e Arrondissement;75;;;75105000BL0060;;;4;7.88;;;;;;;;;1;2;Appartement;8;1;;;;;;2.347055;48.847517
2020-815787;2020-07-01;000001;Vente;850000;35;;RUE DE L ARBALETE;0405;75005;75105;Paris 5e Arrondissement;75;;;75105000AW0038;;;63;;;;;;;;;;1;2;Appartement;61;3;;;;;;2.34733;48.839226
2020-815788;2020-07-03;000001;Vente;214000;46;;RUE DE LA CLEF;2094;75005;75105;Paris 5e Arrondissement;75;;;75105000AK0061;;;19;;;;;;;;;;1;2;Appartement;7;1;;;;;;2.353006;48.842674
2020-815788;2020-07-03;000001;Vente;214000;46;;RUE DE LA CLEF;2094;75005;75105;Paris 5e Arrondissement;75;;;75105000AK0061;;;18;;;;;;;;;;1;3;Dépendance;;0;;;;;;2.353006;48.842674
2020-815791;2020-07-01;000001;Vente;950000;15;;RUE LACEPEDE;5220;75005;75105;Paris 5e Arrondissement;75;;;75105000AK0079;;;13;66.09;;;;;;;;;1;2;Appartement;63;3;;;;;;2.352984;48.843488
2020-815797;2020-07-03;000001;Vente;215000;11;;RUE VICTOR COUSIN;9751;75005;75105;Paris 5e Arrondissement;75;;;75105000BJ0016;;;22;13.51;38;;;;;;;;2;2;Appartement;13;1;;;;;;2.342553;48.847538
2020-815803;2020-07-07;000001;Vente;120000;17;;RUE PIERRE NICOLE;7467;75005;75105;Paris 5e Arrondissement;75;;;75105000BG0058;;;33;8.77;;;;;;;;;1;3;Dépendance;;0;;;;;;2.340035;48.841237
2020-815806;2020-07-08;000001;Vente;260000;9;;RUE GEOFFROY ST HILAIRE;4108;75005;75105;Paris 5e Arrondissement;75;;;75105000AR0105;;;132;;;;;;;;;;1;2;Appartement;18;1;;;;;;2.356495;48.839103
2020-815808;2020-07-10;000001;Vente;1150000;5;;RUE DU PUITS DE L ERMITE;7887;75005;75105;Paris 5e Arrondissement;75;;;75105000AL0098;;;107;82.59;121;;;;;;;;2;2;Appartement;89;5;;;;;;2.353104;48.841973
2020-815810;2020-07-10;000001;Vente;345000;26;;RUE DES BOULANGERS;1156;75005;75105;Paris 5e Arrondissement;75;;;75105000AH0029;;;102;;122;32.53;;;;;;;2;2;Appartement;40;2;;;;;;2.353339;48.846271
2020-815811;2020-07-10;000001;Vente;475000;4;;RUE SAINT SEVERIN;8760;75005;75105;Paris 5e Arrondissement;75;;;75105000BP0037;;;34;;5;;;;;;;;2;2;Appartement;23;2;;;;;;2.346141;48.852309
2020-815811;2020-07-10;000001;Vente;475000;4;;RUE SAINT SEVERIN;8760;75005;75105;Paris 5e Arrondissement;75;;;75105000BP0037;;;15;;39;;;;;;;;2;2;Appartement;28;2;;;;;;2.346141;48.852309
2020-815813;2020-07-09;000001;Vente;355000;18;;RUE LINNE;5696;75005;75105;Paris 5e Arrondissement;75;;;75105000AG0029;;;28;;3;37.04;;;;;;;2;4;Local industriel. commercial ou assimilé;37;0;;;;;;2.354954;48.845223
2020-815814;2020-07-09;000001;Vente;282000;18;;RUE LINNE;5696;75005;75105;Paris 5e Arrondissement;75;;;75105000AG0029;;;4;31.06;;;;;;;;;1;4;Local industriel. commercial ou assimilé;40;0;;;;;;2.354954;48.845223
2020-815814;2020-07-09;000001;Vente;282000;18;;RUE LINNE;5696;75005;75105;Paris 5e Arrondissement;75;;;75105000AG0029;;;33;;;;;;;;;;1;4;Local industriel. commercial ou assimilé;49;0;;;;;;2.354954;48.845223
2020-815815;2020-07-10;000001;Vente;500;14;;RUE DE L HOTEL COLBERT;4661;75005;75105;Paris 5e Arrondissement;75;;;75105000BQ0060;;;8;;;;;;;;;;1;2;Appartement;73;2;;;;;;2.348176;48.85158
2020-815816;2020-07-10;000001;Vente;940000;287;;RUE SAINT JACQUES;8648;75005;75105;Paris 5e Arrondissement;75;;;75105000BE0005;;;2;77.63;3;;;;;;;;2;4;Local industriel. commercial ou assimilé;80;0;;;;;;2.340674;48.840067
2020-815817;2020-07-16;000001;Vente;369000;1;;RUE DE NAVARRE;6702;75005;75105;Paris 5e Arrondissement;75;;;75105000AJ0105;;;11;25.69;;;;;;;;;1;2;Appartement;26;1;;;;;;2.353504;48.843782
2020-815819;2020-07-08;000001;Vente;39000;32;B;RUE LACEPEDE;5220;75005;75105;Paris 5e Arrondissement;75;;;75105000AJ0129;;;51;4.64;;;;;;;;;1;3;Dépendance;;0;;;;;;2.351369;48.844206
2020-815821;2020-07-20;000001;Vente;79000;16;;BD SAINT MARCEL;8690;75005;75105;Paris 5e Arrondissement;75;;;75105000AR0042;;;27;6.01;;;;;;;;;1;3;Dépendance;;0;;;;;;2.360205;48.839809
2020-815826;2020-07-09;000001;Vente;7500;53;;QUAI DE LA TOURNELLE;9380;75005;75105;Paris 5e Arrondissement;75;;;75105000AB0178;;;217;;;;;;;;;;1;2;Appartement;72;1;;;;;;2.351868;48.850586
2020-815828;2020-07-10;000001;Vente;120000;31;;RUE DESCARTES;2724;75005;75105;Paris 5e Arrondissement;75;;;75105000AJ0005;;;34;12.91;46;;;;;;;;2;2;Appartement;100;4;;;;;;2.349409;48.845694
2020-815830;2020-07-17;000001;Vente;885412;38;;RUE MONGE;6432;75005;75105;Paris 5e Arrondissement;75;;;75105000AJ0059;;;17;68.2;;;;;;;;;1;2;Appartement;66;4;;;;;;2.351576;48.845795
2020-815831;2020-07-02;000001;Vente;454150;7;;RUE DE L ESSAI;3368;75005;75105;Paris 5e Arrondissement;75;;;75105000AR0057;;;32;34.64;;;;;;;;;1;2;Appartement;33;2;;;;;;2.357956;48.839705
2020-815837;2020-07-10;000001;Vente;350000;25;;RUE DES BOULANGERS;1156;75005;75105;Paris 5e Arrondissement;75;;;75105000AJ0065;;;4;30.31;5;;;;;;;;2;2;Appartement;30;2;;;;;;2.352327;48.845957
2020-815839;2020-07-09;000001;Vente;310000;28;;RUE DE POISSY;7566;75005;75105;Paris 5e Arrondissement;75;;;75105000AC0028;;;221;22.52;;;;;;;;;1;2;Appartement;39;2;;;;;;2.351686;48.84814
2020-815843;2020-07-15;000001;Vente;145000;68;;BD SAINT MARCEL;8690;75005;75105;Paris 5e Arrondissement;75;;;75105000AS0012;;;94;9.87;;;;;;;;;1;2;Appartement;10;1;;;;;;2.354445;48.838115
2020-815845;2020-07-03;000001;Vente;1252415;22;;RUE SOUFFLOT;9041;75005;75105;Paris 5e Arrondissement;75;;;75105000BJ0009;;;6;84.03;;;;;;;;;1;2;Appartement;75;4;;;;;;2.341906;48.847364
2020-815846;2020-07-10;000001;Vente;752000;16;;RUE LINNE;5696;75005;75105;Paris 5e Arrondissement;75;;;75105000AG0031;;;6;68.01;7;;8;;;;;;3;2;Appartement;68;2;;;;;;2.354998;48.845113
2020-815846;2020-07-10;000001;Vente;752000;16;;RUE LINNE;5696;75005;75105;Paris 5e Arrondissement;75;;;75105000AG0031;;;45;;;;;;;;;;1;2;Appartement;88;5;;;;;;2.354998;48.845113
2020-815849;2020-07-16;000001;Vente;5715;282;;RUE SAINT JACQUES;8648;75005;75105;Paris 5e Arrondissement;75;;;75105000BG0050;;;81;;;;;;;;;;1;2;Appartement;22;1;;;;;;2.340889;48.841655
2020-815850;2020-07-16;000001;Vente;6330;282;;RUE SAINT JACQUES;8648;75005;75105;Paris 5e Arrondissement;75;;;75105000BG0050;;;82;;;;;;;;;;1;2;Appartement;22;1;;;;;;2.340889;48.841655
2020-815851;2020-07-21;000001;Vente;377000;20;;RUE LAPLACE;5340;75005;75105;Paris 5e Arrondissement;75;;;75105000BL0060;;;11;29.82;24;;;;;;;;2;2;Appartement;30;1;;;;;;2.347055;48.847517
2020-815852;2020-07-10;000001;Vente;55000;295;;RUE SAINT JACQUES;8648;75005;75105;Paris 5e Arrondissement;75;;;75105000BE0041;;;328;;;;;;;;;;1;3;Dépendance;;0;;;;;;2.340678;48.839452
2020-815853;2020-07-09;000001;Vente;485000;1;;RUE VESALE;9719;75005;75105;Paris 5e Arrondissement;75;;;75105000AS0017;;;15;;39;;;;;;;;2;2;Appartement;31;2;;;;;;2.353613;48.838191
2020-815867;2020-07-15;000001;Vente;755000;17;;RUE LARREY;5362;75005;75105;Paris 5e Arrondissement;75;;;75105000AK0063;;;26;;61;54.72;;;;;;;2;2;Appartement;55;1;;;;;;2.353236;48.842804
2020-815868;2020-07-06;000001;Vente;175000;24;;RUE TOURNEFORT;9376;75005;75105;Paris 5e Arrondissement;75;;;75105000AY0030;;;114;;;;;;;;;;1;2;Appartement;14;1;;;;;;2.347855;48.842494
2020-815870;2020-07-07;000001;Vente;450000;7;;RUE FLATTERS;3665;75005;75105;Paris 5e Arrondissement;75;;;75105000AW0108;;;27;;3;;;;;;;;2;2;Appartement;38;2;;;;;;2.346163;48.837917
2020-815872;2020-07-07;000001;Vente;313200;69;;RUE BUFFON;1371;75005;75105;Paris 5e Arrondissement;75;;;75105000AM0007;;;66;;7;;;;;;;;2;2;Appartement;53;3;;;;;;2.356842;48.841093
2020-815873;2020-07-03;000001;Vente;1100000;4;;RUE BERTHOLLET;0916;75005;75105;Paris 5e Arrondissement;75;;;75105000BE0027;;;4;;;;;;;;;;1;2;Appartement;75;3;;;;;;2.345599;48.839948
2020-815880;2020-07-21;000001;Echange;2500;340;;RUE SAINT JACQUES;8648;75005;75105;Paris 5e Arrondissement;75;;;75105000BF0068;;;50;;;;;;;;;;1;2;Appartement;157;5;;;;;;2.339845;48.839662
2020-815880;2020-07-21;000002;Echange;2500;340;;RUE SAINT JACQUES;8648;75005;75105;Paris 5e Arrondissement;75;;;75105000BF0068;;;43;;;;;;;;;;1;2;Appartement;80;2;;;;;;2.339845;48.839662
2020-815897;2020-07-03;000001;Vente;998450;40;;BD SAINT GERMAIN;8619;75005;75105;Paris 5e Arrondissement;75;;;75105000AB0106;;;29;;6;68.8;;;;;;;2;2;Appartement;73;3;;;;;;2.351162;48.849829
2020-815901;2020-07-20;000001;Vente;224000;3;;RUE D ARRAS;0467;75005;75105;Paris 5e Arrondissement;75;;;75105000AI0035;;;24;13.16;;;;;;;;;1;2;Appartement;16;1;;;;;;2.351972;48.847335
2020-815903;2020-07-24;000001;Vente;779000;20;;RUE DES CARMES;1554;75005;75105;Paris 5e Arrondissement;75;;;75105000BM0034;;;10;52.52;28;;;;;;;;2;2;Appartement;55;2;;;;;;2.347167;48.848701
2020-815904;2020-07-21;000001;Vente;943000;340;;RUE SAINT JACQUES;8648;75005;75105;Paris 5e Arrondissement;75;;;75105000BF0068;;;50;;;;;;;;;;1;2;Appartement;157;5;;;;;;2.339845;48.839662
2020-815904;2020-07-21;000001;Vente;943000;340;;RUE SAINT JACQUES;8648;75005;75105;Paris 5e Arrondissement;75;;;75105000BF0068;;;24;80.05;;;;;;;;;1;2;Appartement;80;2;;;;;;2.339845;48.839662
2020-815906;2020-07-16;000001;Vente;163000;44;;RUE DES FOSSES ST BERNARD;3747;75005;75105;Paris 5e Arrondissement;75;;;75105000AH0002;;;17;10.02;;;;;;;;;1;2;Appartement;10;1;;;;;;2.353135;48.847652
2020-815913;2020-07-08;000001;Vente;795000;4;;RUE LE GOFF;5479;75005;75105;Paris 5e Arrondissement;75;;;75105000BI0008;;;17;63.55;4;;;;;;;;2;2;Appartement;64;3;;;;;;2.341371;48.846823
2020-815920;2020-07-25;000001;Vente;40000;13;;RUE GRACIEUSE;4259;75005;75105;Paris 5e Arrondissement;75;;;75105000AL0005;;;1244;;;;;;;;;;1;3;Dépendance;;0;;;;;;2.35072;48.842286
2020-815922;2020-07-02;000001;Vente;600000;12;B;AV DES GOBELINS;4209;75005;75105;Paris 5e Arrondissement;75;;;75105000AV0054;;;214;57.25;;;;;;;;;1;2;Appartement;59;3;;;;;;2.350221;48.837514
2020-815925;2020-07-24;000001;Vente;1141466;3;;RUE ROYER-COLLARD;8421;75005;75105;Paris 5e Arrondissement;75;;;75105000BH0058;;;2;102.3;4;;;;;;;;2;4;Local industriel. commercial ou assimilé;179;0;;;;;;2.342362;48.845538
2020-815925;2020-07-24;000001;Vente;1141466;3;;RUE ROYER-COLLARD;8421;75005;75105;Paris 5e Arrondissement;75;;;75105000BH0058;;;1;41.4;;;;;;;;;1;4;Local industriel. commercial ou assimilé;90;0;;;;;;2.342362;48.845538
2020-815933;2020-07-22;000001;Vente;553000;49;;RUE LACEPEDE;5220;75005;75105;Paris 5e Arrondissement;75;;;75105000AK0011;;;5;39.98;;;;;;;;;1;2;Appartement;39;2;;;;;;2.349999;48.844082
2020-815934;2020-07-30;000001;Vente;202000;34;;RUE DU FER A MOULIN;3573;75005;75105;Paris 5e Arrondissement;75;;;75105000AU0043;;;606;;;;;;;;;;1;2;Appartement;19;1;;;;;;2.352864;48.839309
2020-815935;2020-07-10;000001;Vente;380000;15;B;RUE DU POT DE FER;7752;75005;75105;Paris 5e Arrondissement;75;;;75105000AY0031;;;28;;8;;;;;;;;2;2;Appartement;33;1;;;;;;2.347924;48.842661
2020-815941;2020-07-30;000001;Vente;642500;28;;RUE DES BERNARDINS;0896;75005;75105;Paris 5e Arrondissement;75;;;75105000AB0098;;;19;;6;;;;;;;;2;2;Appartement;45;2;;;;;;2.350373;48.849991
2020-815942;2020-07-24;000001;Vente;288814;17;;AV DES GOBELINS;4209;75005;75105;Paris 5e Arrondissement;75;;;75105000AV0023;;;30;;44;;;;;;;;2;2;Appartement;32;2;;;;;;2.351824;48.837571
2020-815943;2020-07-28;000001;Vente;79000;17;;RUE MALEBRANCHE;5949;75005;75105;Paris 5e Arrondissement;75;;;75105000BI0029;;;23;;;;;;;;;;1;3;Dépendance;;0;;;;;;2.341857;48.846404
2020-815951;2020-07-10;000001;Vente;300000;6;;BD DE L HOPITAL;4649;75005;75105;Paris 5e Arrondissement;75;;;75105000AQ0022;;;27;26.15;;;;;;;;;1;2;Appartement;25;2;;;;;;2.363384;48.842811
2020-815959;2020-07-24;000001;Vente;927000;26;;RUE DAUBENTON;2580;75005;75105;Paris 5e Arrondissement;75;;;75105000AL0091;;;117;76.41;54;;;;;;;;2;2;Appartement;76;2;;;;;;2.353248;48.841523
2020-815959;2020-07-24;000001;Vente;927000;26;;RUE DAUBENTON;2580;75005;75105;Paris 5e Arrondissement;75;;;75105000AL0091;;;89;;;;;;;;;;1;3;Dépendance;;0;;;;;;2.353248;48.841523
2020-815961;2020-07-21;000001;Vente;190080;10;;SQ ADANSON;0052;75005;75105;Paris 5e Arrondissement;75;;;75105000AU0096;;;208;32;;;;;;;;;1;2;Appartement;32;1;;;;;;2.351929;48.839099
2020-815963;2020-07-28;000001;Vente;1080000;20;;RUE DE L ESTRAPADE;3377;75005;75105;Paris 5e Arrondissement;75;;;75105000BK0028;;;7;128.6;;;;;;;;;1;2;Appartement;128;5;;;;;;2.345416;48.845207
2020-815966;2020-07-17;000001;Vente;185300;28;;RUE DES ECOLES;3098;75005;75105;Paris 5e Arrondissement;75;;;75105000BO0044;;;20;10.9;;;;;;;;;1;3;Dépendance;;0;;;;;;2.347734;48.848995
2020-815968;2020-07-27;000001;Vente;459500;8;;RUE GUY DE LA BROSSE;4434;75005;75105;Paris 5e Arrondissement;75;;;75105000AG0034;;;113;;138;;;;;;;;2;2;Appartement;42;2;;;;;;2.355332;48.845392
2020-815970;2020-08-03;000001;Vente;217500;173;;RUE SAINT JACQUES;8648;75005;75105;Paris 5e Arrondissement;75;;;75105000BI0053;;;87;11.61;;;;;;;;;1;2;Appartement;12;1;;;;;;2.343244;48.845503
2020-815978;2020-08-04;000001;Vente;175000;7;;RUE XAVIER PRIVAS;9975;75005;75105;Paris 5e Arrondissement;75;;;75105000BP0053;;;9;12.7;;;;;;;;;1;2;Appartement;18;1;;;;;;2.345585;48.852774
2020-815979;2020-07-31;000001;Vente;580000;20;;RUE HENRI BARBUSSE;4535;75005;75105;Paris 5e Arrondissement;75;;;75105000BG0016;;;16;;;;;;;;;;1;3;Dépendance;;0;;;;;;2.338963;48.842257
2020-815979;2020-07-31;000001;Vente;580000;20;;RUE HENRI BARBUSSE;4535;75005;75105;Paris 5e Arrondissement;75;;;75105000BG0016;;;11;33.1;;;;;;;;;1;2;Appartement;25;3;;;;;;2.338963;48.842257
2020-815981;2020-07-31;000001;Vente;890000;10;;RUE DE QUATREFAGES;7911;75005;75105;Paris 5e Arrondissement;75;;;75105000AK0106;;;13;64.55;47;;;;;;;;2;2;Appartement;60;3;;;;;;2.354681;48.84304
2020-815982;2020-07-31;000001;Vente;1978200;37;;RUE HENRI BARBUSSE;4535;75005;75105;Paris 5e Arrondissement;75;;;75105000BF0040;;;26;;;;;;;;;;1;2;Appartement;99;4;;;;;;2.338673;48.840388
2020-815982;2020-07-31;000001;Vente;1978200;37;;RUE HENRI BARBUSSE;4535;75005;75105;Paris 5e Arrondissement;75;;;75105000BF0040;;;15;;;;;;;;;;1;2;Appartement;78;4;;;;;;2.338673;48.840388
2020-815984;2020-07-27;000001;Vente;685000;4;;RUE DES GRANDS DEGRES;4289;75005;75105;Paris 5e Arrondissement;75;;;75105000AB0004;;;107;;114;50.28;;;;;;;2;2;Appartement;55;2;;;;;;2.349896;48.851421
2020-815986;2020-07-31;000001;Vente;15000;13;;RUE DE L EPEE DE BOIS;3298;75005;75105;Paris 5e Arrondissement;75;;;75105000AL0109;;;1293;;;;;;;;;;1;3;Dépendance;;0;;;;;;2.350435;48.841357
2020-815987;2020-07-15;000001;Vente;265000;2;;RUE PASCAL;7076;75005;75105;Paris 5e Arrondissement;75;;;75105000AX0079;;;100;67.79;142;;;;;;;;2;4;Local industriel. commercial ou assimilé;97;0;;;;;;2.349722;48.839054
2020-815995;2020-07-08;000001;Vente;575000;1;B;RUE DE L ARBALETE;0405;75005;75105;Paris 5e Arrondissement;75;;;75105000AU0003;;;3;;4;;5;;6;49.12;;;4;4;Local industriel. commercial ou assimilé;47;0;;;;;;2.35003;48.84037
2020-815996;2020-07-23;000001;Vente;2000000;30;;RUE SAINT SEVERIN;8760;75005;75105;Paris 5e Arrondissement;75;;;75105000BP0078;;;112;;141;;142;;146;;148;;5;4;Local industriel. commercial ou assimilé;236;0;;;;;;2.345001;48.852644
2020-815998;2020-08-03;000001;Vente;955500;88;;BD DE PORT-ROYAL;7740;75005;75105;Paris 5e Arrondissement;75;;;75105000BF0084;;;138;;51;;;;;;;;2;2;Appartement;120;4;;;;;;2.339337;48.839259
2020-815999;2020-07-22;000001;Vente;365000;3;;RUE BLAINVILLE;1001;75005;75105;Paris 5e Arrondissement;75;;;75105000AZ0039;;;17;24.09;19;;;;;;;;2;2;Appartement;20;2;;;;;;2.349053;48.844417
2020-816001;2020-07-29;000001;Vente;613700;8;;RUE DE NAVARRE;6702;75005;75105;Paris 5e Arrondissement;75;;;75105000AG0005;;;45;;65;50.91;;;;;;;2;2;Appartement;50;2;;;;;;2.353919;48.844289
2020-816002;2020-07-29;000001;Vente;415000;88;;BD DE PORT-ROYAL;7740;75005;75105;Paris 5e Arrondissement;75;;;75105000BF0084;;;103;;40;;;;;;;;2;2;Appartement;45;3;;;;;;2.339337;48.839259
2020-816006;2020-07-21;000001;Vente;169000;25;;RUE LACEPEDE;5220;75005;75105;Paris 5e Arrondissement;75;;;75105000AK0033;;;104;9.77;;;;;;;;;1;2;Appartement;9;1;;;;;;2.351876;48.843649
2020-816007;2020-07-30;000001;Vente;549000;113;;BD SAINT MICHEL;8705;75005;75105;Paris 5e Arrondissement;75;;;75105000BG0074;;;110;38.21;121;;;;;;;;2;2;Appartement;42;2;;;;;;2.339024;48.843287
2020-816008;2020-07-29;000001;Vente;595000;348;;RUE SAINT JACQUES;8648;75005;75105;Paris 5e Arrondissement;75;;;75105000BF0081;;;17;;54;41.11;;;;;;;2;2;Appartement;40;2;;;;;;2.339662;48.83922
2020-816010;2020-07-30;000001;Vente;490000;44;;RUE DE LA CLEF;2094;75005;75105;Paris 5e Arrondissement;75;;;75105000AK0060;;;73;;;;;;;;;;1;2;Appartement;33;2;;;;;;2.352981;48.842472
2020-816013;2020-07-15;000001;Vente;372750;59;;RUE DU CARDINAL LEMOINE;1545;75005;75105;Paris 5e Arrondissement;75;;;75105000AJ0023;;;7;29.88;;;;;;;;;1;2;Appartement;35;2;;;;;;2.351396;48.846156
2020-816020;2020-07-24;000001;Vente;490000;13;;RUE LINNE;5696;75005;75105;Paris 5e Arrondissement;75;;;75105000AG0018;;;58;42.29;73;;;;;;;;2;2;Appartement;35;3;;;;;;2.354257;48.844529
2020-816025;2020-07-29;000001;Vente;245000;85;;BD SAINT MICHEL;8705;75005;75105;Paris 5e Arrondissement;75;;;75105000BH0010;;;4;;;;;;;;;;1;2;Appartement;19;1;;;;;;2.340258;48.845323
2020-816029;2020-08-07;000001;Vente;43000;69;;RUE CLAUDE BERNARD;2069;75005;75105;Paris 5e Arrondissement;75;;;75105000BD0051;;;177;;;;;;;;;;1;3;Dépendance;;0;;;;;;2.343855;48.840808
2020-816035;2020-07-31;000001;Vente;415000;12;;RUE DE MIRBEL;6383;75005;75105;Paris 5e Arrondissement;75;;;75105000AL0042;;;7;45.23;8;;;;;;;;2;2;Appartement;44;3;;;;;;2.350945;48.841153
2020-816041;2020-08-06;000001;Vente;735800;9;;RUE DE L HOTEL COLBERT;4661;75005;75105;Paris 5e Arrondissement;75;;;75105000BQ0081;;;2;50.06;23;;;;;;;;2;4;Local industriel. commercial ou assimilé;51;0;;;;;;2.348482;48.851411
2020-816044;2020-07-30;000001;Vente;254500;6;;RUE DE L ESSAI;3368;75005;75105;Paris 5e Arrondissement;75;;;75105000AR0055;;;57;21.53;;;;;;;;;1;2;Appartement;22;1;;;;;;2.358551;48.839648
2020-816045;2020-07-20;000001;Vente;380000;82;;BD SAINT MARCEL;8690;75005;75105;Paris 5e Arrondissement;75;;;75105000AS0026;;;111;33.25;27;;;;;;;;2;2;Appartement;33;2;;;;;;2.353;48.837543
2020-816046;2020-07-29;000001;Vente;2029000;42;;RUE HENRI BARBUSSE;4535;75005;75105;Paris 5e Arrondissement;75;;;75105000BF0022;;;27;;51;123.01;;;;;;;2;2;Appartement;122;5;;;;;;2.338235;48.840986
2020-816051;2020-07-30;000001;Vente;170000;7;;RUE DU VAL DE GRACE;9544;75005;75105;Paris 5e Arrondissement;75;;;75105000BF0054;;;228;;229;;239;;240;;249;;5;3;Dépendance;;0;;;;;;2.339969;48.840761
2020-816053;2020-08-03;000001;Vente;180000;23;;RUE DE LA HARPE;4475;75005;75105;Paris 5e Arrondissement;75;;;75105000BP0094;;;14;9.4;;;;;;;;;1;2;Appartement;15;1;;;;;;2.34482;48.852261
2020-816054;2020-08-13;000001;Vente;38000;33;;RUE CENSIER;1642;75005;75105;Paris 5e Arrondissement;75;;;75105000AU0078;;;260;;;;;;;;;;1;3;Dépendance;;0;;;;;;2.35264;48.839924
2020-816055;2020-08-11;000001;Vente;17350;13;;RUE BUFFON;1371;75005;75105;Paris 5e Arrondissement;75;;;75105000AQ0053;;;267;;269;;;;;;;;2;4;Local industriel. commercial ou assimilé;114;0;;;;;;2.362593;48.842209
2020-816056;2020-07-28;000001;Vente;253900;64;;RUE MOUFFETARD;6581;75005;75105;Paris 5e Arrondissement;75;;;75105000AY0041;;;9;17.17;;;;;;;;;1;2;Appartement;51;3;;;;;;2.349442;48.842917
2020-816060;2020-07-29;000001;Vente;660000;72;;RUE CLAUDE BERNARD;2069;75005;75105;Paris 5e Arrondissement;75;;;75105000AY0007;;;3;77.05;57;;61;;;;;;3;4;Local industriel. commercial ou assimilé;100;0;;;;;;2.346039;48.840561
2020-816069;2020-07-29;000001;Vente;378000;11;;RUE DE LA HUCHETTE;4678;75005;75105;Paris 5e Arrondissement;75;;;75105000BP0032;;;67;;9;;;;;;;;2;2;Appartement;27;1;;;;;;2.346029;48.852682
2020-816074;2020-07-28;000001;Vente;2070000;89;;BD SAINT MICHEL;8705;75005;75105;Paris 5e Arrondissement;75;;;75105000BH0012;;;11;;32;;35;;50;;;;4;2;Appartement;149;6;;;;;;2.340112;48.844925
2020-816074;2020-07-28;000001;Vente;2070000;89;;BD SAINT MICHEL;8705;75005;75105;Paris 5e Arrondissement;75;;;75105000BH0012;;;58;;;;;;;;;;1;3;Dépendance;;0;;;;;;2.340112;48.844925
2020-816076;2020-08-24;000001;Vente;725000;34;B;RUE GEOFFROY ST HILAIRE;4108;75005;75105;Paris 5e Arrondissement;75;;;75105000AM0021;;;105;54.37;114;;;;;;;;2;2;Appartement;56;2;;;;;;2.356337;48.840979
2020-816079;2020-07-30;000001;Vente;290000;30;;RUE LACEPEDE;5220;75005;75105;Paris 5e Arrondissement;75;;;75105000AJ0127;;;3;;41;;;;;;;;2;2;Appartement;30;2;;;;;;2.351743;48.844135
2020-816082;2020-08-21;000001;Vente;302000;21;;RUE DU CARDINAL LEMOINE;1545;75005;75105;Paris 5e Arrondissement;75;;;75105000AD0038;;;1;27.75;;;;;;;;;1;4;Local industriel. commercial ou assimilé;33;0;;;;;;2.353844;48.848285
2020-816083;2020-08-21;000001;Vente;801440;45;;RUE MONGE;6432;75005;75105;Paris 5e Arrondissement;75;;;75105000AJ0074;;;6;61.74;;;;;;;;;1;2;Appartement;63;3;;;;;;2.352349;48.845371
2020-816084;2020-08-26;000001;Vente;755000;56;;BD DE PORT-ROYAL;7740;75005;75105;Paris 5e Arrondissement;75;;;75105000AW0103;;;26;;9;;;;;;;;2;2;Appartement;69;4;;;;;;2.346234;48.837723
2020-816087;2020-08-07;000001;Vente;2200000;10;;AV DES GOBELINS;4209;75005;75105;Paris 5e Arrondissement;75;;;75105000AV0056;;;37;;;;;;;;;;1;3;Dépendance;;0;;;;;;2.350668;48.837758
2020-816087;2020-08-07;000001;Vente;2200000;10;;AV DES GOBELINS;4209;75005;75105;Paris 5e Arrondissement;75;;;75105000AV0056;;;28;;;;;;;;;;1;2;Appartement;5;1;;;;;;2.350668;48.837758
2020-816087;2020-08-07;000001;Vente;2200000;10;;AV DES GOBELINS;4209;75005;75105;Paris 5e Arrondissement;75;;;75105000AV0056;;;29;161;;;;;;;;;1;2;Appartement;84;4;;;;;;2.350668;48.837758
2020-816087;2020-08-07;000001;Vente;2200000;10;;AV DES GOBELINS;4209;75005;75105;Paris 5e Arrondissement;75;;;75105000AV0056;;;29;161;;;;;;;;;1;4;Local industriel. commercial ou assimilé;60;0;;;;;;2.350668;48.837758
2020-816089;2020-08-04;000001;Vente;406000;7;;IMP ROYER-COLLARD;8420;75005;75105;Paris 5e Arrondissement;75;;;75105000BH0043;;;18;29.71;32;;;;;;;;2;2;Appartement;28;2;;;;;;2.340953;48.845422
2020-816090;2020-07-31;000001;Vente;310000;6;B;RUE DE VALENCE;9546;75005;75105;Paris 5e Arrondissement;75;;;75105000AV0069;;;35;24.91;;;;;;;;;1;2;Appartement;25;1;;;;;;2.349938;48.838122
2020-816093;2020-08-07;000001;Vente;170000;32;;RUE DES FOSSES ST BERNARD;3747;75005;75105;Paris 5e Arrondissement;75;;;75105000AD0039;;;43;9.21;;;;;;;;;1;2;Appartement;13;1;;;;;;2.353802;48.848237
2020-816094;2020-07-29;000001;Vente;660000;25;;RUE BROCA;1313;75005;75105;Paris 5e Arrondissement;75;;;75105000AW0066;;;40;;98;50.85;;;;;;;2;2;Appartement;52;2;;;;;;2.348561;48.838071
2020-816100;2020-08-27;000001;Vente;262000;118;;RUE MOUFFETARD;6581;75005;75105;Paris 5e Arrondissement;75;;;75105000AX0062;;;9;20.18;;;;;;;;;1;2;Appartement;26;1;;;;;;2.349581;48.840289
2020-816102;2020-08-06;000001;Vente;1271900;7;;RUE DU VAL DE GRACE;9544;75005;75105;Paris 5e Arrondissement;75;;;75105000BF0054;;;230;;;;;;;;;;1;3;Dépendance;;0;;;;;;2.339969;48.840761
2020-816102;2020-08-06;000001;Vente;1271900;7;;RUE DU VAL DE GRACE;9544;75005;75105;Paris 5e Arrondissement;75;;;75105000BF0054;;;231;;;;;;;;;;1;3;Dépendance;;0;;;;;;2.339969;48.840761
2020-816102;2020-08-06;000001;Vente;1271900;7;;RUE DU VAL DE GRACE;9544;75005;75105;Paris 5e Arrondissement;75;;;75105000BF0054;;;211;70.47;248;;;;;;;;2;2;Appartement;55;2;;;;;;2.339969;48.840761
2020-816108;2020-08-19;000001;Vente;1198609;42;;RUE DES BOULANGERS;1156;75005;75105;Paris 5e Arrondissement;75;;;75105000AH0034;;;36;;;;;;;;;;1;3;Dépendance;;0;;;;;;2.352341;48.846501
2020-816108;2020-08-19;000001;Vente;1198609;42;;RUE DES BOULANGERS;1156;75005;75105;Paris 5e Arrondissement;75;;;75105000AH0034;;;45;;46;;;;;;;;2;2;Appartement;66;3;;;;;;2.352341;48.846501
2020-816110;2020-08-04;000001;Vente;1000000;2;;RUE DU PETIT PONT;7344;75005;75105;Paris 5e Arrondissement;75;;;75105000BP0173;;;6;69.65;;;;;;;;;1;2;Appartement;89;3;;;;;;2.346424;48.85273
2020-816119;2020-08-25;000001;Vente;1213000;73;;BD SAINT MICHEL;8705;75005;75105;Paris 5e Arrondissement;75;;;75105000BH0001;;;5;80.47;;;;;;;;;1;2;Appartement;79;4;;;;;;2.340546;48.846036
2020-816120;2020-09-02;000001;Vente;180000;79;;BD SAINT MICHEL;8705;75005;75105;Paris 5e Arrondissement;75;;;75105000BH0007;;;18;;39;1039;;;;;;;2;3;Dépendance;;0;;;;;;2.340508;48.845698
2020-816122;2020-08-07;000001;Vente;1220970;3;;RUE VAUQUELIN;9626;75005;75105;Paris 5e Arrondissement;75;;;75105000AX0043;;;106;91.72;119;;;;;;;;2;2;Appartement;90;4;;;;;;2.34811;48.841268
2020-816123;2020-08-31;000001;Vente;607600;10;;RUE FLATTERS;3665;75005;75105;Paris 5e Arrondissement;75;;;75105000AW0099;;;20;;7;49.15;;;;;;;2;2;Appartement;48;3;;;;;;2.346502;48.838107
2020-816124;2020-08-14;000001;Vente;481490;12;;RUE LAGRANGE;5268;75005;75105;Paris 5e Arrondissement;75;;;75105000BQ0101;;;17;;;;;;;;;;1;2;Appartement;40;2;;;;;;2.347958;48.85076
2020-816128;2020-08-07;000001;Vente;670000;43;;RUE CLAUDE BERNARD;2069;75005;75105;Paris 5e Arrondissement;75;;;75105000AX0009;;;5;54.42;;;;;;;;;1;2;Appartement;54;2;;;;;;2.346163;48.840015
2020-816132;2020-09-02;000001;Vente;240000;45;;RUE LINNE;5696;75005;75105;Paris 5e Arrondissement;75;;;75105000AH0016;;;27;19.66;;;;;;;;;1;2;Appartement;25;1;;;;;;2.35411;48.846262
2020-816136;2020-09-04;000001;Vente;17700;25;;RUE HENRI BARBUSSE;4535;75005;75105;Paris 5e Arrondissement;75;;;75105000BG0034;;;249;;;;;;;;;;1;3;Dépendance;;0;;;;;;2.339711;48.841675
2020-816137;2020-08-27;000001;Vente;438000;10;;RUE PESTALOZZI;7301;75005;75105;Paris 5e Arrondissement;75;;;75105000AL0021;;;7;30.94;;;;;;;;;1;2;Appartement;35;2;;;;;;2.351014;48.842202
2020-816141;2020-08-20;000001;Vente;2970000;18;;RUE PIERRE ET MARIE CURIE;7424;75005;75105;Paris 5e Arrondissement;75;;;75105000BI0067;;;20;;3;270.84;;;;;;;2;2;Appartement;289;7;;;;;;2.343526;48.844921
2020-816141;2020-08-20;000001;Vente;2970000;18;;RUE PIERRE ET MARIE CURIE;7424;75005;75105;Paris 5e Arrondissement;75;;;75105000BI0067;;;3;270.84;;;;;;;;;1;3;Dépendance;;0;;;;;;2.343526;48.844921
2020-816141;2020-08-20;000001;Vente;2970000;18;;RUE PIERRE ET MARIE CURIE;7424;75005;75105;Paris 5e Arrondissement;75;;;75105000BI0067;;;3;270.84;;;;;;;;;1;3;Dépendance;;0;;;;;;2.343526;48.844921
2020-816142;2020-08-18;000001;Vente;175000;4;;RUE DE LANNEAU;5325;75005;75105;Paris 5e Arrondissement;75;;;75105000BM0022;;;28;12.79;;;;;;;;;1;2;Appartement;14;1;;;;;;2.346887;48.848348
2020-816144;2020-08-25;000001;Vente;733000;10;;RUE DE LA COLLEGIALE;2187;75005;75105;Paris 5e Arrondissement;75;;;75105000AS0032;;;66;71.05;;;;;;;;;1;2;Appartement;65;3;;;;;;2.352411;48.837772
2020-816144;2020-08-25;000001;Vente;733000;10;;RUE DE LA COLLEGIALE;2187;75005;75105;Paris 5e Arrondissement;75;;;75105000AS0032;;;13;;;;;;;;;;1;2;Appartement;33;2;;;;;;2.352411;48.837772
2020-816145;2020-07-02;000001;Vente;160000;3;;RUE D ARRAS;0467;75005;75105;Paris 5e Arrondissement;75;;;75105000AI0035;;;47;13.5;;;;;;;;;1;2;Appartement;16;1;;;;;;2.351972;48.847335
2020-816150;2020-08-20;000001;Vente;230000;5;;RUE DES FOSSES ST MARCEL;3751;75005;75105;Paris 5e Arrondissement;75;;;75105000AR0088;;;31;21.68;;;;;;;;;1;2;Appartement;23;1;;;;;;2.356486;48.839328
2020-816151;2020-08-27;000001;Vente;441000;12;B;AV DES GOBELINS;4209;75005;75105;Paris 5e Arrondissement;75;;;75105000AV0054;;;215;35.72;218;;;;;;;;2;2;Appartement;35;2;;;;;;2.350221;48.837514
2020-816152;2020-09-04;000001;Vente;523400;7;;RUE SCIPION;8884;75005;75105;Paris 5e Arrondissement;75;;;75105000AS0016;;;30;42.36;;;;;;;;;1;2;Appartement;48;3;;;;;;2.353665;48.838097
2020-816154;2020-08-28;000001;Vente;131481;25;;RUE HENRI BARBUSSE;4535;75005;75105;Paris 5e Arrondissement;75;;;75105000BG0034;;;11;;93;;;;;;;;2;2;Appartement;76;3;;;;;;2.339711;48.841675
2020-816160;2020-08-28;000001;Vente;261030;53;;RUE LACEPEDE;5220;75005;75105;Paris 5e Arrondissement;75;;;75105000AK0003;;;11;17.96;;;;;;;;;1;2;Appartement;16;1;;;;;;2.349757;48.844276
2020-816161;2020-09-08;000001;Vente;2798500;23;;RUE DES FOSSES ST JACQUES;3749;75005;75105;Paris 5e Arrondissement;75;;;75105000BK0029;;;37;;69;;;;;;;;2;2;Appartement;113;5;;;;;;2.345266;48.845303
2020-816161;2020-09-08;000001;Vente;2798500;23;;RUE DES FOSSES ST JACQUES;3749;75005;75105;Paris 5e Arrondissement;75;;;75105000BK0029;;;38;;70;;;;;;;;2;2;Appartement;22;2;;;;;;2.345266;48.845303
2020-816161;2020-09-08;000001;Vente;2798500;23;;RUE DES FOSSES ST JACQUES;3749;75005;75105;Paris 5e Arrondissement;75;;;75105000BK0029;;;53;;;;;;;;;;1;3;Dépendance;;0;;;;;;2.345266;48.845303
2020-816161;2020-09-08;000001;Vente;2798500;23;;RUE DES FOSSES ST JACQUES;3749;75005;75105;Paris 5e Arrondissement;75;;;75105000BK0029;;;72;;;;;;;;;;1;2;Appartement;20;1;;;;;;2.345266;48.845303
2020-816164;2020-09-04;000001;Vente;326315;12;B;RUE DU VAL DE GRACE;9544;75005;75105;Paris 5e Arrondissement;75;;;75105000BG0032;;;60;22.81;;;;;;;;;1;2;Appartement;26;1;;;;;;2.339395;48.841515
2020-816165;2020-08-26;000001;Vente;259616;72;;RUE CLAUDE BERNARD;2069;75005;75105;Paris 5e Arrondissement;75;;;75105000AY0007;;;26;;;;;;;;;;1;3;Dépendance;;0;;;;;;2.346039;48.840561
2020-816166;2020-09-04;000001;Vente;250000;4;;RUE DES LYONNAIS;5868;75005;75105;Paris 5e Arrondissement;75;;;75105000AW0027;;;15;;213;23.95;214;;;;;;3;2;Appartement;20;2;;;;;;2.347235;48.838296
2020-816169;2020-08-31;000001;Vente;900000;72;;RUE GAY-LUSSAC;3998;75005;75105;Paris 5e Arrondissement;75;;;75105000BD0034;;;8;9.29;;;;;;;;;1;3;Dépendance;;0;;;;;;2.342965;48.841767
2020-816169;2020-08-31;000001;Vente;900000;72;;RUE GAY-LUSSAC;3998;75005;75105;Paris 5e Arrondissement;75;;;75105000BD0034;;;29;;6;67.83;;;;;;;2;2;Appartement;48;4;;;;;;2.342965;48.841767
2020-816169;2020-08-31;000001;Vente;900000;72;;RUE GAY-LUSSAC;3998;75005;75105;Paris 5e Arrondissement;75;;;75105000BD0034;;;7;9.46;;;;;;;;;1;3;Dépendance;;0;;;;;;2.342965;48.841767
2020-816170;2020-08-31;000001;Vente;185000;46;;RUE DAUBENTON;2580;75005;75105;Paris 5e Arrondissement;75;;;75105000AU0008;;;10;14.01;;;;;;;;;1;2;Appartement;20;1;;;;;;2.350139;48.840258
2020-816171;2020-08-27;000001;Vente;198750;22;;BD DE L HOPITAL;4649;75005;75105;Paris 5e Arrondissement;75;;;75105000AQ0060;;;36;13.52;;;;;;;;;1;2;Appartement;14;1;;;;;;2.362449;48.841631
2020-816174;2020-08-06;000001;Vente;1262500;21;;QUAI DE LA TOURNELLE;9380;75005;75105;Paris 5e Arrondissement;75;;;75105000AB0160;;;28;;8;85.12;;;;;;;2;2;Appartement;94;3;;;;;;2.354327;48.849817
2020-816174;2020-08-06;000001;Vente;1262500;21;;QUAI DE LA TOURNELLE;9380;75005;75105;Paris 5e Arrondissement;75;;;75105000AB0160;;;39;;;;;;;;;;1;3;Dépendance;;0;;;;;;2.354327;48.849817
2020-816178;2020-09-09;000001;Vente;723000;10;B;AV DES GOBELINS;4209;75005;75105;Paris 5e Arrondissement;75;;;75105000AV0058;;;18;57.64;27;;;;;;;;2;2;Appartement;60;2;;;;;;2.350009;48.837597
2020-816185;2020-09-07;000001;Vente;258000;36;;RUE DE LA MONTGN STE GENEVIEVE;6448;75005;75105;Paris 5e Arrondissement;75;;;75105000BL0022;;;31;15.18;;;;;;;;;1;2;Appartement;14;1;;;;;;2.348193;48.848011
2020-816188;2020-09-03;000001;Vente;280000;74;;RUE DU CARDINAL LEMOINE;1545;75005;75105;Paris 5e Arrondissement;75;;;75105000AJ0149;;;15;18.53;;;;;;;;;1;2;Appartement;25;2;;;;;;2.349479;48.84483
2020-816189;2020-08-27;000001;Vente;230000;28;;RUE DAUBENTON;2580;75005;75105;Paris 5e Arrondissement;75;;;75105000AL0090;;;32;13.15;;;;;;;;;1;2;Appartement;20;1;;;;;;2.35305;48.841406
2020-816193;2020-09-09;000001;Vente;234000;40;;RUE DE LA MONTGN STE GENEVIEVE;6448;75005;75105;Paris 5e Arrondissement;75;;;75105000BL0023;;;14;;;;;;;;;;1;2;Appartement;17;1;;;;;;2.348094;48.847862
2020-816194;2020-09-02;000001;Vente;975000;13;;AV DES GOBELINS;4209;75005;75105;Paris 5e Arrondissement;75;;;75105000AV0018;;;69;;;;;;;;;;1;2;Appartement;33;2;;;;;;2.351868;48.837755
2020-816194;2020-09-02;000001;Vente;975000;13;;AV DES GOBELINS;4209;75005;75105;Paris 5e Arrondissement;75;;;75105000AV0018;;;91;77.02;;;;;;;;;1;2;Appartement;81;4;;;;;;2.351868;48.837755
2020-816196;2020-09-07;000001;Vente;480000;7;;PL JUSSIEU;5129;75005;75105;Paris 5e Arrondissement;75;;;75105000AG0035;;;14;;15;;;;;;;;2;2;Appartement;45;2;;;;;;2.355013;48.845553
2020-816197;2020-09-04;000001;Vente;463000;12;;RUE PESTALOZZI;7301;75005;75105;Paris 5e Arrondissement;75;;;75105000AL0020;;;16;37.6;;;;;;;;;1;2;Appartement;38;2;;;;;;2.350812;48.842115
2020-816200;2020-09-03;000001;Vente;710000;73;;RUE MOUFFETARD;6581;75005;75105;Paris 5e Arrondissement;75;;;75105000AL0006;;;11;57.3;9;;;;;;;;2;2;Appartement;60;3;;;;;;2.350085;48.842221
2020-816201;2020-09-10;000001;Vente;610000;194;;RUE SAINT JACQUES;8648;75005;75105;Paris 5e Arrondissement;75;;;75105000BI0036;;;11;;5;42.69;;;;;;;2;2;Appartement;50;2;;;;;;2.34251;48.846121
2020-816203;2020-09-09;000001;Vente;3500;16;;RUE LINNE;5696;75005;75105;Paris 5e Arrondissement;75;;;75105000AG0031;;;111;;113;;;;;;;;2;2;Appartement;86;4;;;;;;2.354998;48.845113
2020-816204;2020-08-20;000001;Vente;1023500;10;;SQ ADANSON;0052;75005;75105;Paris 5e Arrondissement;75;;;75105000AU0096;;;169;;206;84.75;;;;;;;2;2;Appartement;89;3;;;;;;2.351929;48.839099
2020-816207;2020-09-09;000001;Vente;39000;18;;RUE DES LYONNAIS;5868;75005;75105;Paris 5e Arrondissement;75;;;75105000AW0119;;;65;;;;;;;;;;1;3;Dépendance;;0;;;;;;2.346918;48.838575
2020-816210;2020-09-01;000001;Vente;1061350;1;;RUE MAITRE ALBERT;5937;75005;75105;Paris 5e Arrondissement;75;;;75105000AB0049;;;26;70.38;27;;28;;72;;;;4;2;Appartement;72;3;;;;;;2.350209;48.850957
2020-816213;2020-08-19;000001;Vente;760000;12;;RUE LARREY;5362;75005;75105;Paris 5e Arrondissement;75;;;75105000AK0090;;;46;72.85;55;;;;;;;;2;2;Appartement;70;3;;;;;;2.353796;48.842554
2020-816214;2020-09-11;000001;Vente;1330000;6;;RUE MONGE;6432;75005;75105;Paris 5e Arrondissement;75;;;75105000AC0095;;;14;91.03;42;;;;;;;;2;2;Appartement;91;4;;;;;;2.3492;48.849231
2020-816215;2020-09-04;000001;Vente;1650000;8;;RUE DES CARMES;1554;75005;75105;Paris 5e Arrondissement;75;;;75105000BO0051;;;10;109.67;;;;;;;;;1;2;Appartement;110;4;;;;;;2.347573;48.84955
2020-816216;2020-09-14;000001;Vente;1310405;121;;BD SAINT MICHEL;8705;75005;75105;Paris 5e Arrondissement;75;;;75105000BG0009;;;209;;3;98.4;;;;;;;2;2;Appartement;96;5;;;;;;2.338847;48.842888
2020-816221;2020-09-16;000001;Vente;252427;19;;RUE DES FEUILLANTINES;3630;75005;75105;Paris 5e Arrondissement;75;;;75105000BD0072;;;53;12.82;;;;;;;;;1;2;Appartement;15;1;;;;;;2.341572;48.841777
2020-816222;2020-09-04;000001;Vente;2600000;64;;RUE MONGE;6432;75005;75105;Paris 5e Arrondissement;75;;;75105000AJ0155;;;1;;2;;;;;;;;2;4;Local industriel. commercial ou assimilé;168;0;;;;;;2.351964;48.844064
2020-816223;2020-09-10;000001;Vente;400000;18;;RUE DU POT DE FER;7752;75005;75105;Paris 5e Arrondissement;75;;;75105000AZ0069;;;3;;;;;;;;;;1;2;Appartement;40;2;;;;;;2.348399;48.843065
2020-816223;2020-09-10;000001;Vente;400000;20;;RUE DU POT DE FER;7752;75005;75105;Paris 5e Arrondissement;75;;;75105000AZ0069;;;4;39.66;;;;;;;;;1;2;Appartement;47;2;;;;;;2.348399;48.843065
2020-816223;2020-09-10;000001;Vente;400000;20;;RUE DU POT DE FER;7752;75005;75105;Paris 5e Arrondissement;75;;;75105000AZ0069;;;60;;;;;;;;;;1;2;Appartement;24;1;;;;;;2.348399;48.843065
2020-816224;2020-09-18;000001;Vente;217000;16;;RUE SAINT VICTOR;8777;75005;75105;Paris 5e Arrondissement;75;;;75105000AC0023;;;62;18.9;;;;;;;;;1;2;Appartement;19;1;;;;;;2.351207;48.848443
2020-816225;2020-09-08;000001;Vente;588000;66;;RUE DE LA MONTGN STE GENEVIEVE;6448;75005;75105;Paris 5e Arrondissement;75;;;75105000BL0069;;;23;;;;;;;;;;1;2;Appartement;39;2;;;;;;2.347638;48.847003
2020-816234;2020-09-09;000001;Vente;43000;33;;RUE CENSIER;1642;75005;75105;Paris 5e Arrondissement;75;;;75105000AU0078;;;191;;;;;;;;;;1;3;Dépendance;;0;;;;;;2.35264;48.839924
2020-816237;2020-09-03;000001;Vente;735000;45;;RUE HENRI BARBUSSE;4535;75005;75105;Paris 5e Arrondissement;75;;;75105000BF0036;;;41;;;;;;;;;;1;3;Dépendance;;0;;;;;;2.338369;48.839868
2020-816237;2020-09-03;000001;Vente;735000;45;;RUE HENRI BARBUSSE;4535;75005;75105;Paris 5e Arrondissement;75;;;75105000BF0036;;;14;61.19;;;;;;;;;1;2;Appartement;62;2;;;;;;2.338369;48.839868
2020-816237;2020-09-03;000001;Vente;735000;45;;RUE HENRI BARBUSSE;4535;75005;75105;Paris 5e Arrondissement;75;;;75105000BF0036;;;51;;;;;;;;;;1;3;Dépendance;;0;;;;;;2.338369;48.839868
2020-816238;2020-09-01;000001;Vente;1150000;13;;RUE THOUIN;9302;75005;75105;Paris 5e Arrondissement;75;;;75105000BK0012;;;21;108.5;;;;;;;;;1;4;Local industriel. commercial ou assimilé;110;0;;;;;;2.348489;48.844692
2020-816240;2020-09-15;000001;Vente;600000;52;A;RUE MOUFFETARD;6581;75005;75105;Paris 5e Arrondissement;75;;;75105000AZ0089;;;102;42.87;;;;;;;;;1;2;Appartement;41;2;;;;;;2.348875;48.84328
2020-816243;2020-09-18;000001;Vente;45000;295;;RUE SAINT JACQUES;8648;75005;75105;Paris 5e Arrondissement;75;;;75105000BE0041;;;254;;;;;;;;;;1;3;Dépendance;;0;;;;;;2.340678;48.839452
2020-816245;2020-09-18;000001;Vente;361500;11;;RUE DE LA HUCHETTE;4678;75005;75105;Paris 5e Arrondissement;75;;;75105000BP0032;;;37;13.95;;;;;;;;;1;3;Dépendance;;0;;;;;;2.346029;48.852682
2020-816245;2020-09-18;000001;Vente;361500;11;;RUE DE LA HUCHETTE;4678;75005;75105;Paris 5e Arrondissement;75;;;75105000BP0032;;;37;13.95;;;;;;;;;1;2;Appartement;23;1;;;;;;2.346029;48.852682
2020-816246;2020-09-16;000001;Vente;410000;22;;RUE DES CARMES;1554;75005;75105;Paris 5e Arrondissement;75;;;75105000BM0033;;;7;35.76;;;;;;;;;1;2;Appartement;35;2;;;;;;2.34701;48.848661
2020-816251;2020-09-09;000001;Vente;2;56;;RUE LHOMOND;5648;75005;75105;Paris 5e Arrondissement;75;;;75105000AX0048;;;37;;41;;;;;;;;2;4;Local industriel. commercial ou assimilé;105;0;;;;;;2.348281;48.840852
2020-816252;2020-09-09;000001;Vente;1;56;;RUE LHOMOND;5648;75005;75105;Paris 5e Arrondissement;75;;;75105000AX0048;;;35;;;;;;;;;;1;2;Appartement;157;7;;;;;;2.348281;48.840852
2020-816252;2020-09-09;000001;Vente;1;56;;RUE LHOMOND;5648;75005;75105;Paris 5e Arrondissement;75;;;75105000AX0048;;;33;;;;;;;;;;1;2;Appartement;78;2;;;;;;2.348281;48.840852
2020-816252;2020-09-09;000001;Vente;1;56;;RUE LHOMOND;5648;75005;75105;Paris 5e Arrondissement;75;;;75105000AX0048;;;36;;;;;;;;;;1;2;Appartement;157;7;;;;;;2.348281;48.840852
2020-816253;2020-09-09;000001;Vente;648854;36;;RUE DU FER A MOULIN;3573;75005;75105;Paris 5e Arrondissement;75;;;75105000AU0086;;;218;51.04;;;;;;;;;1;2;Appartement;43;2;;;;;;;
2020-816256;2020-09-09;000001;Vente;1;56;;RUE LHOMOND;5648;75005;75105;Paris 5e Arrondissement;75;;;75105000AX0048;;;39;;;;;;;;;;1;2;Appartement;157;7;;;;;;2.348281;48.840852
2020-816259;2020-08-27;000001;Echange;4000;82;;BD SAINT MARCEL;8690;75005;75105;Paris 5e Arrondissement;75;;;75105000AS0026;;;35;;;;;;;;;;1;2;Appartement;31;2;;;;;;2.353;48.837543
2020-816260;2020-08-27;000002;Echange;3000;82;;BD SAINT MARCEL;8690;75005;75105;Paris 5e Arrondissement;75;;;75105000AS0026;;;134;;;;;;;;;;1;2;Appartement;31;2;;;;;;2.353;48.837543
2020-816261;2020-09-11;000001;Vente;420000;15;;RUE BUFFON;1371;75005;75105;Paris 5e Arrondissement;75;;;75105000AQ0053;;;531;23.82;;;;;;;;;1;2;Appartement;24;1;;;;;;2.362593;48.842209
2020-816262;2020-09-15;000001;Vente;20000;93;;RUE MONGE;6432;75005;75105;Paris 5e Arrondissement;75;;;75105000AL0111;;;195;;;;;;;;;;1;3;Dépendance;;0;;;;;;2.352439;48.841463
2020-816267;2020-09-16;000001;Vente;970000;23;;RUE DES BOULANGERS;1156;75005;75105;Paris 5e Arrondissement;75;;;75105000AJ0069;;;45;79.96;;;;;;;;;1;2;Appartement;80;3;;;;;;2.352426;48.845862
2020-816267;2020-09-16;000001;Vente;970000;23;;RUE DES BOULANGERS;1156;75005;75105;Paris 5e Arrondissement;75;;;75105000AJ0069;;;49;;;;;;;;;;1;2;Appartement;45;1;;;;;;2.352426;48.845862
2020-816268;2020-09-14;000001;Vente;506700;19;;RUE PASCAL;7076;75005;75105;Paris 5e Arrondissement;75;;;75105000AV0071;;;3;39.3;;;;;;;;;1;2;Appartement;40;3;;;;;;2.349543;48.837919
2020-816269;2020-08-31;000001;Vente;235000;64;;RUE LHOMOND;5648;75005;75105;Paris 5e Arrondissement;75;;;75105000AX0050;;;1;;;;;;;;;;1;4;Local industriel. commercial ou assimilé;16;0;;;;;;2.348626;48.840661
2020-816270;2020-09-10;000001;Vente;1301000;14;;RUE DU CARDINAL LEMOINE;1545;75005;75105;Paris 5e Arrondissement;75;;;75105000AC0041;;;52;95.47;95;;;;;;;;2;2;Appartement;100;6;;;;;;2.353539;48.849007
2020-816274;2020-09-22;000001;Vente;385000;11;;RUE GRACIEUSE;4259;75005;75105;Paris 5e Arrondissement;75;;;75105000AL0005;;;1041;32.27;1319;;;;;;;;2;2;Appartement;32;1;;;;;;2.35072;48.842286
2020-816275;2020-09-04;000001;Vente;145000;45;;RUE BROCA;1313;75005;75105;Paris 5e Arrondissement;75;;;75105000AW0073;;;18;11.05;46;;;;;;;;2;2;Appartement;14;1;;;;;;2.347754;48.837716
2020-816282;2020-09-16;000001;Vente;463000;3;;RUE SCIPION;8884;75005;75105;Paris 5e Arrondissement;75;;;75105000AS0014;;;34;33.09;;;;;;;;;1;2;Appartement;18;1;;;;;;2.353922;48.837858
2020-816282;2020-09-16;000001;Vente;463000;3;;RUE SCIPION;8884;75005;75105;Paris 5e Arrondissement;75;;;75105000AS0014;;;35;;;;;;;;;;1;2;Appartement;14;1;;;;;;2.353922;48.837858
2020-816285;2020-09-17;000001;Vente;231000;17;;RUE BERTHOLLET;0916;75005;75105;Paris 5e Arrondissement;75;;;75105000AW0018;;;14;21.05;;;;;;;;;1;2;Appartement;21;1;;;;;;2.345964;48.838933
2020-816289;2020-09-21;000001;Vente;400000;34;;BD DE L HOPITAL;4649;75005;75105;Paris 5e Arrondissement;75;;;75105000AQ0041;;;261;;95;34.71;;;;;;;2;2;Appartement;35;1;;;;;;2.361722;48.840699
2020-816290;2020-09-18;000001;Vente;245000;10;;RUE DE LA COLLEGIALE;2187;75005;75105;Paris 5e Arrondissement;75;;;75105000AS0032;;;79;;;;;;;;;;1;2;Appartement;33;2;;;;;;2.352411;48.837772
2020-816290;2020-09-18;000001;Vente;245000;10;;RUE DE LA COLLEGIALE;2187;75005;75105;Paris 5e Arrondissement;75;;;75105000AS0032;;;37;18.07;;;;;;;;;1;2;Appartement;40;3;;;;;;2.352411;48.837772
2020-816292;2020-09-23;000001;Vente;120000;12;;RUE SOUFFLOT;9041;75005;75105;Paris 5e Arrondissement;75;;;75105000BJ0033;;;9;7.4;;;;;;;;;1;3;Dépendance;;0;;;;;;2.343225;48.847035
2020-816298;2020-09-18;000001;Vente;335000;12;;RUE ROLLIN;8329;75005;75105;Paris 5e Arrondissement;75;;;75105000AJ0042;;;21;30.79;;;;;;;;;1;2;Appartement;26;2;;;;;;2.350591;48.844842
2020-816299;2020-09-17;000001;Vente;220000;15;;RUE DE L ESTRAPADE;3377;75005;75105;Paris 5e Arrondissement;75;;;75105000AZ0009;;;11;;;;;;;;;;1;3;Dépendance;;0;;;;;;2.346576;48.844517
2020-816302;2020-09-24;000001;Vente;260000;23;;RUE POLIVEAU;7576;75005;75105;Paris 5e Arrondissement;75;;;75105000AR0094;;;6;18.4;;;;;;;;;1;2;Appartement;20;1;;;;;;2.359376;48.840164
2020-816303;2020-09-17;000001;Vente;480000;2;;SQ ADANSON;0052;75005;75105;Paris 5e Arrondissement;75;;;75105000AU0053;;;264;37.25;;;;;;;;;1;4;Local industriel. commercial ou assimilé;37;0;;;;;;2.351482;48.839027
2020-816309;2020-09-12;000001;Vente;430000;282;;RUE SAINT JACQUES;8648;75005;75105;Paris 5e Arrondissement;75;;;75105000BG0050;;;51;37.87;52;;;;;;;;2;2;Appartement;32;2;;;;;;2.340889;48.841655
2020-816310;2020-09-04;000001;Vente;300000;28;;RUE DES CARMES;1554;75005;75105;Paris 5e Arrondissement;75;;;75105000BM0024;;;9;19.95;;;;;;;;;1;2;Appartement;20;1;;;;;;2.346956;48.848432
2020-816317;2020-07-10;000001;Vente;577500;3;;RUE DE POISSY;7566;75005;75105;Paris 5e Arrondissement;75;;;75105000AB0147;;;21;;37;39.12;38;;39;;;;4;2;Appartement;39;2;;;;;;2.353462;48.85
2020-816318;2020-09-21;000001;Vente;2900000;55;;QUAI DE LA TOURNELLE;9380;75005;75105;Paris 5e Arrondissement;75;;;75105000AB0113;;;31;;32;;68;;;;;;3;2;Appartement;132;4;;;;;;2.351357;48.85077
2020-816319;2020-09-23;000001;Vente;270000;49;;RUE LACEPEDE;5220;75005;75105;Paris 5e Arrondissement;75;;;75105000AK0011;;;26;22.1;;;;;;;;;1;2;Appartement;23;1;;;;;;2.349999;48.844082
2020-816322;2020-09-18;000001;Vente;280000;123;;BD SAINT MICHEL;8705;75005;75105;Paris 5e Arrondissement;75;;;75105000BG0012;;;54;;;;;;;;;;1;3;Dépendance;;0;;;;;;2.338771;48.842761
2020-816322;2020-09-18;000001;Vente;280000;123;;BD SAINT MICHEL;8705;75005;75105;Paris 5e Arrondissement;75;;;75105000BG0012;;;13;;54;;;;;;;;2;2;Appartement;22;2;;;;;;2.338771;48.842761
2020-816323;2020-09-22;000001;Vente;345000;7;;RUE LHOMOND;5648;75005;75105;Paris 5e Arrondissement;75;;;75105000AZ0004;;;7;24.73;;;;;;;;;1;2;Appartement;19;1;;;;;;2.345735;48.844427
2020-816325;2020-09-10;000001;Vente;760400;68;;BD SAINT MARCEL;8690;75005;75105;Paris 5e Arrondissement;75;;;75105000AS0012;;;49;;89;;;;;;;;2;2;Appartement;68;4;;;;;;2.354445;48.838115
2020-816326;2020-09-07;000001;Vente;270000;6;;RUE ROLLIN;8329;75005;75105;Paris 5e Arrondissement;75;;;75105000AJ0045;;;9;35.09;;;;;;;;;1;2;Appartement;30;2;;;;;;2.351664;48.844847
2020-816331;2020-09-15;000001;Vente;29000;13;;RUE GRACIEUSE;4259;75005;75105;Paris 5e Arrondissement;75;;;75105000AL0005;;;1082;;;;;;;;;;1;3;Dépendance;;0;;;;;;2.35072;48.842286
2020-816333;2020-09-24;000001;Vente;511000;86;;RUE MONGE;6432;75005;75105;Paris 5e Arrondissement;75;;;75105000AL0034;;;1;48.15;33;;;;;;;;2;4;Local industriel. commercial ou assimilé;60;0;;;;;;2.351749;48.841773
2020-816334;2020-09-16;000001;Vente;882000;10;;RUE DES TROIS PORTES;9464;75005;75105;Paris 5e Arrondissement;75;;;75105000BQ0077;;;140;58.53;159;;;;;;;;2;2;Appartement;11;1;;;;;;2.348716;48.851293
2020-816334;2020-09-16;000001;Vente;882000;10;;RUE DES TROIS PORTES;9464;75005;75105;Paris 5e Arrondissement;75;;;75105000BQ0077;;;139;58.53;;;;;;;;;1;2;Appartement;27;1;;;;;;2.348716;48.851293
2020-816336;2020-09-10;000001;Vente;565000;20;;BD DE L HOPITAL;4649;75005;75105;Paris 5e Arrondissement;75;;;75105000AQ0061;;;18;41.8;72;;;;;;;;2;2;Appartement;40;2;;;;;;2.362586;48.841796
2020-816337;2020-09-15;000001;Vente;1000000;24;;RUE DES BERNARDINS;0896;75005;75105;Paris 5e Arrondissement;75;;;75105000AB0097;;;16;;69;;;;;;;;2;2;Appartement;60;3;;;;;;2.350334;48.850139
2020-816338;2020-09-23;000001;Vente;519300;5;;RUE DAUBENTON;2580;75005;75105;Paris 5e Arrondissement;75;;;75105000AT0024;;;30;40.96;56;;;;;;;;2;2;Appartement;36;3;;;;;;2.355359;48.841338
2020-816346;2020-10-01;000001;Vente;215000;6;;RUE DES LYONNAIS;5868;75005;75105;Paris 5e Arrondissement;75;;;75105000AW0029;;;9;18.05;;;;;;;;;1;2;Appartement;20;1;;;;;;2.347184;48.838215
2020-816349;2020-09-15;000001;Vente;335000;22;;RUE DAUBENTON;2580;75005;75105;Paris 5e Arrondissement;75;;;75105000AL0093;;;4;23.91;;;;;;;;;1;2;Appartement;23;2;;;;;;2.353576;48.841396
2020-816351;2020-09-30;000001;Vente;12000;27;;RUE BROCA;1313;75005;75105;Paris 5e Arrondissement;75;;;75105000AW0068;;;98;;;;;;;;;;1;3;Dépendance;;0;;;;;;2.348309;48.837769
2020-816353;2020-09-30;000001;Vente;310000;9;;RUE SAINT SEVERIN;8760;75005;75105;Paris 5e Arrondissement;75;;;75105000BP0090;;;58;24.77;;;;;;;;;1;2;Appartement;25;1;;;;;;2.344951;48.852259
2020-816357;2020-09-17;000001;Vente;595300;7;B;RUE POLIVEAU;7576;75005;75105;Paris 5e Arrondissement;75;;;75105000AR0030;;;26;;4;;;;;;;;2;2;Appartement;58;3;;;;;;2.360792;48.840119
2020-816358;2020-09-22;000001;Vente;965250;17;;RUE DES ECOLES;3098;75005;75105;Paris 5e Arrondissement;75;;;75105000AI0016;;;32;;5;;6;;;;;;3;2;Appartement;30;2;;;;;;2.351098;48.84775
2020-816358;2020-09-22;000001;Vente;965250;17;;RUE DES ECOLES;3098;75005;75105;Paris 5e Arrondissement;75;;;75105000AI0016;;;4;;;;;;;;;;1;2;Appartement;40;3;;;;;;2.351098;48.84775
2020-816361;2020-09-21;000001;Vente;221500;23;;RUE DE LA HARPE;4475;75005;75105;Paris 5e Arrondissement;75;;;75105000BP0094;;;6;12.72;;;;;;;;;1;2;Appartement;18;2;;;;;;2.34482;48.852261
2020-816362;2020-09-24;000001;Vente;542250;18;;RUE DES LYONNAIS;5868;75005;75105;Paris 5e Arrondissement;75;;;75105000AW0119;;;114;41.46;;;;;;;;;1;2;Appartement;43;2;;;;;;2.346918;48.838575
2020-816366;2020-10-02;000001;Vente;1182569;7;;RUE TOURNEFORT;9376;75005;75105;Paris 5e Arrondissement;75;;;75105000AZ0080;;;33;;;;;;;;;;1;3;Dépendance;;0;;;;;;2.348338;48.844065
2020-816366;2020-10-02;000001;Vente;1182569;7;;RUE TOURNEFORT;9376;75005;75105;Paris 5e Arrondissement;75;;;75105000AZ0080;;;31;;;;;;;;;;1;2;Appartement;93;4;;;;;;2.348338;48.844065
2020-816368;2020-09-28;000001;Vente;1250000;40;;RUE GAY-LUSSAC;3998;75005;75105;Paris 5e Arrondissement;75;;;75105000BC0011;;;23;101.23;4;;;;;;;;2;2;Appartement;101;4;;;;;;2.342067;48.843687
2020-816379;2020-09-30;000001;Vente;280000;19;;RUE LHOMOND;5648;75005;75105;Paris 5e Arrondissement;75;;;75105000AZ0014;;;44;15.19;45;;;;;;;;2;2;Appartement;15;1;;;;;;2.346479;48.843647
2020-816386;2020-09-24;000001;Vente;470000;25;;RUE HENRI BARBUSSE;4535;75005;75105;Paris 5e Arrondissement;75;;;75105000BG0034;;;113;;30;;;;;;;;2;2;Appartement;45;1;;;;;;2.339711;48.841675
2020-816391;2020-09-16;000001;Vente;285000;11;;RUE PASCAL;7076;75005;75105;Paris 5e Arrondissement;75;;;75105000AV0074;;;18;;47;71.51;;;;;;;2;2;Appartement;73;3;;;;;;2.34995;48.838373
2020-816394;2020-09-25;000001;Vente;590000;5;;RUE MALEBRANCHE;5949;75005;75105;Paris 5e Arrondissement;75;;;75105000BI0036;;;118;42.11;;;;;;;;;1;2;Appartement;20;1;;;;;;2.34251;48.846121
2020-816396;2020-09-29;000001;Vente;950000;30;;RUE DES BOULANGERS;1156;75005;75105;Paris 5e Arrondissement;75;;;75105000AH0030;;;1;;58;78.3;71;;;;;;3;2;Appartement;76;3;;;;;;2.352871;48.846216
2020-816397;2020-09-24;000001;Vente;492000;1;;RUE BASSE DES CARMES;0705;75005;75105;Paris 5e Arrondissement;75;;;75105000BO0035;;;15;;;;;;;;;;1;2;Appartement;37;2;;;;;;2.348422;48.849116
2020-816397;2020-09-24;000001;Vente;492000;1;;RUE BASSE DES CARMES;0705;75005;75105;Paris 5e Arrondissement;75;;;75105000BO0035;;;12;41.89;26;;;;;;;;2;2;Appartement;40;2;;;;;;2.348422;48.849116
2020-816399;2020-10-01;000001;Vente;363000;20;;RUE MAITRE ALBERT;5937;75005;75105;Paris 5e Arrondissement;75;;;75105000AB0032;;;12;;2;36.42;;;;;;;2;4;Local industriel. commercial ou assimilé;245;0;;;;;;2.349325;48.850509
2020-816405;2020-10-01;000001;Vente;575000;82;;BD SAINT MARCEL;8690;75005;75105;Paris 5e Arrondissement;75;;;75105000AS0026;;;18;;58;42.62;;;;;;;2;2;Appartement;43;3;;;;;;2.353;48.837543
2020-816406;2020-10-02;000001;Vente;182000;84;;RUE MONGE;6432;75005;75105;Paris 5e Arrondissement;75;;;75105000AL0033;;;14;4.4;16;10.2;;;;;;;2;2;Appartement;14;1;;;;;;2.351745;48.841913
2020-816410;2020-09-22;000001;Vente;525000;14;;RUE DES LYONNAIS;5868;75005;75105;Paris 5e Arrondissement;75;;;75105000AW0026;;;45;;72;;;;;;;;2;2;Appartement;42;2;;;;;;2.347069;48.838438
2020-816412;2020-10-02;000001;Vente;840000;316;;RUE SAINT JACQUES;8648;75005;75105;Paris 5e Arrondissement;75;;;75105000BF0076;;;26;57.48;27;;30;;31;;61;;5;2;Appartement;62;2;;;;;;2.340357;48.840442
2020-816413;2020-09-30;000001;Vente;400000;18;;RUE DES FEUILLANTINES;3630;75005;75105;Paris 5e Arrondissement;75;;;75105000BG0043;;;2;15.2;;;;;;;;;1;4;Local industriel. commercial ou assimilé;14;0;;;;;;2.34105;48.842343
2020-816413;2020-09-30;000001;Vente;400000;18;;RUE DES FEUILLANTINES;3630;75005;75105;Paris 5e Arrondissement;75;;;75105000BG0043;;;3;30.26;;;;;;;;;1;4;Local industriel. commercial ou assimilé;26;0;;;;;;2.34105;48.842343
2020-816417;2020-10-01;000001;Vente;420000;15;;RUE DU PUITS DE L ERMITE;7887;75005;75105;Paris 5e Arrondissement;75;;;75105000AL0078;;;201;;229;39.37;;;;;;;2;2;Appartement;37;2;;;;;;2.352427;48.842003
2020-816418;2020-10-01;000001;Vente;1220000;8;;RUE DES FOSSES ST JACQUES;3749;75005;75105;Paris 5e Arrondissement;75;;;75105000BI0048;;;102;;2;;23;;3;;;;4;4;Local industriel. commercial ou assimilé;33;0;;;;;;2.343819;48.845741
2020-816418;2020-10-01;000001;Vente;1220000;14;;RUE DES FOSSES ST JACQUES;3749;75005;75105;Paris 5e Arrondissement;75;;;75105000BI0055;;;1;;;;;;;;;;1;4;Local industriel. commercial ou assimilé;20;0;;;;;;2.343959;48.845421
2020-816422;2020-09-30;000001;Vente;950000;6;;RUE LINNE;5696;75005;75105;Paris 5e Arrondissement;75;;;75105000AG0054;;;17;;;;;;;;;;1;2;Appartement;26;2;;;;;;2.35524;48.844369
2020-816422;2020-09-30;000001;Vente;950000;6;;RUE LINNE;5696;75005;75105;Paris 5e Arrondissement;75;;;75105000AG0054;;;1;143.24;27;;38;;;;;;3;4;Local industriel. commercial ou assimilé;143;0;;;;;;2.35524;48.844369
2020-816425;2020-09-24;000001;Vente;965000;70;;BD DE PORT-ROYAL;7740;75005;75105;Paris 5e Arrondissement;75;;;75105000AW0006;;;181;;;;;;;;;;1;3;Dépendance;;0;;;;;;2.345164;48.838267
2020-816425;2020-09-24;000001;Vente;965000;70;;BD DE PORT-ROYAL;7740;75005;75105;Paris 5e Arrondissement;75;;;75105000AW0006;;;12;64.25;3;;;;;;;;2;2;Appartement;63;3;;;;;;2.345164;48.838267
2020-816435;2020-10-06;000001;Vente;28350;9;;RUE LAROMIGUIERE;5360;75005;75105;Paris 5e Arrondissement;75;;;75105000AZ0027;;;177;;;;;;;;;;1;3;Dépendance;;0;;;;;;2.347325;48.843748
2020-816438;2020-09-24;000001;Vente;364000;24;;RUE DES BERNARDINS;0896;75005;75105;Paris 5e Arrondissement;75;;;75105000AB0097;;;50;25.01;56;;61;;89;;;;4;2;Appartement;27;2;;;;;;2.350334;48.850139
2020-816439;2020-10-05;000001;Vente;375000;6;;PL DE LA SORBONNE;9032;75005;75105;Paris 5e Arrondissement;75;;;75105000BN0016;;;11;30;;;;;;;;;1;2;Appartement;30;2;;;;;;2.342484;48.848834
2020-816439;2020-10-05;000001;Vente;375000;6;;PL DE LA SORBONNE;9032;75005;75105;Paris 5e Arrondissement;75;;;75105000BN0016;;;9;;;;;;;;;;1;2;Appartement;64;3;;;;;;2.342484;48.848834
2020-816440;2020-09-30;000001;Vente;211563;6;;RUE THOUIN;9302;75005;75105;Paris 5e Arrondissement;75;;;75105000AJ0013;;;25;30.84;;;;;;;;;1;2;Appartement;26;2;;;;;;2.349342;48.845197
2020-816441;2020-10-05;000001;Vente;736000;6;;PL DE LA SORBONNE;9032;75005;75105;Paris 5e Arrondissement;75;;;75105000BN0016;;;10;63.85;;;;;;;;;1;2;Appartement;64;3;;;;;;2.342484;48.848834
2020-816448;2020-09-18;000001;Vente;280000;11;;RUE TOULLIER;9355;75005;75105;Paris 5e Arrondissement;75;;;75105000BJ0030;;;31;16.5;;;;;;;;;1;2;Appartement;18;1;;;;;;2.343197;48.847106
2020-816450;2020-10-12;000001;Vente;570000;171;;RUE SAINT JACQUES;8648;75005;75105;Paris 5e Arrondissement;75;;;75105000BI0052;;;21;;5;42.18;;;;;;;2;2;Appartement;40;2;;;;;;2.343333;48.845578
2020-816451;2020-10-05;000001;Vente;1300000;38;;RUE DES ECOLES;3098;75005;75105;Paris 5e Arrondissement;75;;;75105000BO0058;;;81;;;;;;;;;;1;2;Appartement;65;3;;;;;;2.346589;48.849403
2020-816452;2020-10-12;000001;Vente;680000;46;;RUE DES FOSSES ST BERNARD;3747;75005;75105;Paris 5e Arrondissement;75;;;75105000AH0003;;;7;54.25;8;52.31;;;;;;;2;2;Appartement;57;3;;;;;;2.353;48.847627
2020-816453;2020-10-14;000001;Vente;436000;8;;RUE AMYOT;0302;75005;75105;Paris 5e Arrondissement;75;;;75105000AZ0028;;;49;31.48;;;;;;;;;1;2;Appartement;30;2;;;;;;2.347355;48.843616
2020-816454;2020-10-09;000001;Vente;10000;31;;RUE DESCARTES;2724;75005;75105;Paris 5e Arrondissement;75;;;75105000AJ0005;;;58;;;;;;;;;;1;2;Appartement;9;1;;;;;;2.349409;48.845694
2020-816455;2020-09-30;000001;Vente;579000;5;;RUE DE LA COLLEGIALE;2187;75005;75105;Paris 5e Arrondissement;75;;;75105000AV0026;;;68;;83;;;;;;;;2;2;Appartement;46;3;;;;;;2.352178;48.837408
2020-816461;2020-09-29;000001;Vente;743000;12;;RUE SAINT JULIEN LE PAUVRE;8665;75005;75105;Paris 5e Arrondissement;75;;;75105000BQ0035;;;14;10.95;6;44.05;;;;;;;2;2;Appartement;55;1;;;;;;2.346891;48.852403
2020-816462;2020-09-25;000001;Vente en l'état futur d'achèvement;50000;33;;RUE DU CARDINAL LEMOINE;1545;75005;75105;Paris 5e Arrondissement;75;;;75105000AH0038;;;4044;;;;;;;;;;1;;;;;;;;;;2.353067;48.847696
2020-816462;2020-09-25;000001;Vente en l'état futur d'achèvement;50000;33;;RUE DU CARDINAL LEMOINE;1545;75005;75105;Paris 5e Arrondissement;75;;;75105000AH0038;;;4045;;;;;;;;;;1;;;;;;;;;;2.353067;48.847696
2020-816463;2020-10-05;000001;Vente;848000;212;;RUE SAINT JACQUES;8648;75005;75105;Paris 5e Arrondissement;75;;;75105000BH0055;;;12;72.95;;;;;;;;;1;2;Appartement;75;3;;;;;;2.342187;48.845483
2020-816472;2020-09-17;000001;Vente;464000;2;B;RUE DE MIRBEL;6383;75005;75105;Paris 5e Arrondissement;75;;;75105000AT0004;;;18;32.88;;;;;;;;;1;2;Appartement;32;2;;;;;;2.352626;48.840816
2020-816474;2020-09-30;000001;Vente;2750000;6;;RUE LHOMOND;5648;75005;75105;Paris 5e Arrondissement;75;;;75105000BI0079;;;3;290.8;;;;;;;;;1;4;Local industriel. commercial ou assimilé;330;0;;;;;;2.345034;48.84456
2020-816475;2020-10-05;000001;Vente;473000;29;;RUE LINNE;5696;75005;75105;Paris 5e Arrondissement;75;;;75105000AJ0097;;;11;40.15;24;;;;;;;;2;2;Appartement;48;3;;;;;;2.354311;48.845388
2020-816476;2020-10-02;000001;Vente;920000;4;;RUE LE GOFF;5479;75005;75105;Paris 5e Arrondissement;75;;;75105000BI0008;;;17;;4;;;;;;;;2;2;Appartement;64;3;;;;;;2.341371;48.846823
2020-816477;2020-09-23;000001;Vente;23000;7;;RUE DU VAL DE GRACE;9544;75005;75105;Paris 5e Arrondissement;75;;;75105000BF0054;;;239;;240;;;;;;;;2;3;Dépendance;;0;;;;;;2.339969;48.840761
2020-816482;2020-10-05;000001;Vente;305000;8;;RUE DES FOSSES ST JACQUES;3749;75005;75105;Paris 5e Arrondissement;75;;;75105000BI0048;;;10;21.85;;;;;;;;;1;2;Appartement;23;1;;;;;;2.343819;48.845741
2020-816483;2020-09-30;000001;Vente;4879194;91;;BD SAINT MICHEL;8705;75005;75105;Paris 5e Arrondissement;75;;;75105000BH0013;;202;;;;;;;;;;;0;;;;;;;;;;2.340243;48.844824
2020-816485;2020-09-25;000001;Vente;898176;4;;RUE THOUIN;9302;75005;75105;Paris 5e Arrondissement;75;;;75105000AJ0014;;;18;100.86;29;;;;;;;;2;2;Appartement;125;4;;;;;;2.349585;48.845303
2020-816486;2020-10-02;000001;Vente;1800000;1;B;RUE DE L ARBALETE;0405;75005;75105;Paris 5e Arrondissement;75;;;75105000AU0003;;;7;85.45;;;;;;;;;1;4;Local industriel. commercial ou assimilé;100;0;;;;;;2.35003;48.84037
2020-816487;2020-10-09;000001;Vente;45000;27;;RUE BROCA;1313;75005;75105;Paris 5e Arrondissement;75;;;75105000AW0068;;;108;;;;;;;;;;1;3;Dépendance;;0;;;;;;2.348309;48.837769
2020-816488;2020-10-14;000001;Vente;137750;66;;RUE CLAUDE BERNARD;2069;75005;75105;Paris 5e Arrondissement;75;;;75105000AX0023;;;21;10.24;;;;;;;;;1;3;Dépendance;;0;;;;;;2.346716;48.840218
2020-816491;2020-10-02;000001;Vente;1250000;9;;RUE DES FOSSES ST JACQUES;3749;75005;75105;Paris 5e Arrondissement;75;;;75105000BJ0038;;;50;76.68;;;;;;;;;1;2;Appartement;80;4;;;;;;2.343991;48.846072
2020-816493;2020-09-30;000001;Vente;520000;8;;BD SAINT MARCEL;8690;75005;75105;Paris 5e Arrondissement;75;;;75105000AR0038;;;20;50.2;;;;;;;;;1;2;Appartement;50;3;;;;;;2.360829;48.84
2020-816502;2020-10-05;000001;Vente;399100;11;;QUAI SAINT MICHEL;8710;75005;75105;Paris 5e Arrondissement;75;;;75105000BP0015;;;25;;59;27.39;60;;;;;;3;2;Appartement;32;1;;;;;;2.345993;48.853063
2020-816503;2020-10-15;000001;Vente;500000;40;;RUE LACEPEDE;5220;75005;75105;Paris 5e Arrondissement;75;;;75105000AJ0138;;;167;;;;;;;;;;1;3;Dépendance;;0;;;;;;2.350514;48.844496
2020-816503;2020-10-15;000001;Vente;500000;40;;RUE LACEPEDE;5220;75005;75105;Paris 5e Arrondissement;75;;;75105000AJ0138;;;78;41.89;;;;;;;;;1;2;Appartement;25;2;;;;;;2.350514;48.844496
2020-816504;2020-10-08;000001;Vente;3500;1;;AV DES GOBELINS;4209;75005;75105;Paris 5e Arrondissement;75;;;75105000AU0048;;;35;;;;;;;;;;1;2;Appartement;120;5;;;;;;2.351016;48.838688
2020-816508;2020-10-06;000001;Vente;275000;9;;RUE PESTALOZZI;7301;75005;75105;Paris 5e Arrondissement;75;;;75105000AL0025;;;43;18.04;;;;;;;;;1;2;Appartement;20;2;;;;;;2.351206;48.841906
2020-816509;2020-10-14;000001;Vente;640000;32;;RUE LACEPEDE;5220;75005;75105;Paris 5e Arrondissement;75;;;75105000AJ0128;;;28;52.25;5;;;;;;;;2;2;Appartement;48;3;;;;;;2.351537;48.844182
2020-816510;2020-09-29;000001;Vente;1750000;5;;RUE MALEBRANCHE;5949;75005;75105;Paris 5e Arrondissement;75;;;75105000BI0036;;;421;;;;;;;;;;1;3;Dépendance;;0;;;;;;2.34251;48.846121
2020-816510;2020-09-29;000001;Vente;1750000;5;;RUE MALEBRANCHE;5949;75005;75105;Paris 5e Arrondissement;75;;;75105000BI0036;;;406;104.81;;;;;;;;;1;2;Appartement;98;3;;;;;;2.34251;48.846121
2020-816513;2020-09-29;000001;Vente;930000;50;;BD DE PORT-ROYAL;7740;75005;75105;Paris 5e Arrondissement;75;;;75105000AW0102;;;33;;7;;;;;;;;2;2;Appartement;86;3;;;;;;2.346666;48.837657
2020-816517;2020-10-12;000001;Vente;170000;1;;RUE DES BOULANGERS;1156;75005;75105;Paris 5e Arrondissement;75;;;75105000AJ0089;;;113;;;;;;;;;;1;2;Appartement;16;1;;;;;;2.354321;48.845952
2020-816518;2020-10-15;000001;Vente;1280000;34;B;BD SAINT MARCEL;8690;75005;75105;Paris 5e Arrondissement;75;;;75105000AR0061;;;10;94.41;19;;;;;;;;2;2;Appartement;96;4;;;;;;2.358305;48.839164
2020-816520;2020-10-15;000001;Vente;1375000;18;B;RUE HENRI BARBUSSE;4535;75005;75105;Paris 5e Arrondissement;75;;;75105000BG0015;;;19;88.21;20;;;;;;;;2;2;Appartement;90;4;;;;;;2.338847;48.842447
2020-816522;2020-10-12;000001;Vente;1580000;4;;RUE DANTE;2549;75005;75105;Paris 5e Arrondissement;75;;;75105000BQ0009;;;4;;5;;;;;;;;2;2;Appartement;169;4;;;;;;2.3467;48.851482
2020-816522;2020-10-12;000001;Vente;1580000;4;;RUE DANTE;2549;75005;75105;Paris 5e Arrondissement;75;;;75105000BQ0009;;;4;;5;;;;;;;;2;4;Local industriel. commercial ou assimilé;55;0;;;;;;2.3467;48.851482
2020-816523;2020-09-29;000001;Vente;7050000;21;;RUE VALETTE;9556;75005;75105;Paris 5e Arrondissement;75;;;75105000BL0109;;;117;;134;;135;;140;;141;;9;4;Local industriel. commercial ou assimilé;649;0;;;;;;2.346853;48.847055
2020-816523;2020-09-29;000001;Vente;7050000;21;A;RUE VALETTE;9556;75005;75105;Paris 5e Arrondissement;75;;;75105000BL0110;;;;;;;;;;;;;0;;;;;S;sols;;;507;2.347038;48.847054
2020-816530;2020-09-25;000001;Vente;9343.1;28;;BD SAINT MARCEL;8690;75005;75105;Paris 5e Arrondissement;75;;;75105000AR0092;;;40;;;;;;;;;;1;4;Local industriel. commercial ou assimilé;172;0;;;;;;2.359112;48.839474
2020-816533;2020-10-16;000001;Vente;432000;43;;RUE CLAUDE BERNARD;2069;75005;75105;Paris 5e Arrondissement;75;;;75105000AX0009;;;37;;8;54.53;;;;;;;2;2;Appartement;54;3;;;;;;2.346163;48.840015
2020-816537;2020-10-08;000001;Vente;60000;69;;RUE CLAUDE BERNARD;2069;75005;75105;Paris 5e Arrondissement;75;;;75105000BD0051;;;140;;;;;;;;;;1;3;Dépendance;;0;;;;;;2.343855;48.840808
2020-816544;2020-10-07;000001;Vente;97000;72;;RUE CLAUDE BERNARD;2069;75005;75105;Paris 5e Arrondissement;75;;;75105000AY0007;;;31;6.82;;;;;;;;;1;3;Dépendance;;0;;;;;;2.346039;48.840561
2020-816545;2020-10-13;000001;Vente;120600;9;;RUE DE PONTOISE;7621;75005;75105;Paris 5e Arrondissement;75;;;75105000AB0135;;;17;;;;;;;;;;1;2;Appartement;9;1;;;;;;2.352204;48.849858
2020-816547;2020-10-15;000001;Vente;263000;16;;RUE MOUFFETARD;6581;75005;75105;Paris 5e Arrondissement;75;;;75105000AZ0041;;;31;16.37;;;;;;;;;1;2;Appartement;19;1;;;;;;2.348991;48.844324
2020-816549;2020-10-02;000001;Vente;1105000;13;;RUE CUJAS;2487;75005;75105;Paris 5e Arrondissement;75;;;75105000BJ0015;;;24;;7;76.3;;;;;;;2;2;Appartement;74;3;;;;;;2.342761;48.847472
2020-816557;2020-09-30;000001;Vente;300000;6;;RUE DE L ESSAI;3368;75005;75105;Paris 5e Arrondissement;75;;;75105000AR0055;;;68;26.45;;;;;;;;;1;2;Appartement;27;1;;;;;;2.358551;48.839648
2020-816558;2020-10-07;000001;Vente;45000;247;;RUE SAINT JACQUES;8648;75005;75105;Paris 5e Arrondissement;75;;;75105000BD0023;;;95;;;;;;;;;;1;3;Dépendance;;0;;;;;;2.341754;48.84245
2020-816560;2020-10-16;000001;Vente;10000;8;;PL DU PUITS DE L ERMITE;7886;75005;75105;Paris 5e Arrondissement;75;;;75105000AK0091;;;20;;;;;;;;;;1;2;Appartement;33;2;;;;;;2.353797;48.842499
2020-816565;2020-10-14;000001;Vente;1770000;2;;RUE GUY DE LA BROSSE;4434;75005;75105;Paris 5e Arrondissement;75;;;75105000AG0042;;;3;;31;;;;;;;;2;2;Appartement;101;4;;;;;;2.355631;48.84553
2020-816565;2020-10-14;000001;Vente;1770000;2;;RUE GUY DE LA BROSSE;4434;75005;75105;Paris 5e Arrondissement;75;;;75105000AG0042;;;29;134.76;7;;;;;;;;2;2;Appartement;35;2;;;;;;2.355631;48.84553
2020-816567;2020-09-30;000001;Vente;201000;9;;RUE SAINT SEVERIN;8760;75005;75105;Paris 5e Arrondissement;75;;;75105000BP0090;;;44;17.81;;;;;;;;;1;2;Appartement;20;1;;;;;;2.344951;48.852259
2020-816580;2020-10-12;000001;Vente;270000;10;;RUE LE GOFF;5479;75005;75105;Paris 5e Arrondissement;75;;;75105000BI0015;;;;;;;;;;;;;0;4;Local industriel. commercial ou assimilé;550;0;S;sols;;;91;2.341269;48.846491
2020-816582;2020-10-15;000001;Vente;495000;22;;RUE DES CARMES;1554;75005;75105;Paris 5e Arrondissement;75;;;75105000BM0033;;;13;50.06;;;;;;;;;1;2;Appartement;25;1;;;;;;2.34701;48.848661
2020-816582;2020-10-15;000001;Vente;495000;22;;RUE DES CARMES;1554;75005;75105;Paris 5e Arrondissement;75;;;75105000BM0033;;;11;;12;;;;;;;;2;2;Appartement;49;3;;;;;;2.34701;48.848661
2020-816589;2020-10-09;000001;Vente;505000;18;;RUE MAITRE ALBERT;5937;75005;75105;Paris 5e Arrondissement;75;;;75105000AB0031;;;3;21.47;5;20.68;;;;;;;2;2;Appartement;43;2;;;;;;2.34943;48.850503
2020-816592;2020-10-08;000001;Vente;261500;101;B;RUE MOUFFETARD;6581;75005;75105;Paris 5e Arrondissement;75;;;75105000AL0048;;;12;21.68;;;;;;;;;1;2;Appartement;25;1;;;;;;2.349864;48.841047
2020-816595;2020-10-07;000001;Vente;710000;9;;RUE DES FEUILLANTINES;3630;75005;75105;Paris 5e Arrondissement;75;;;75105000BD0061;;;9;54.8;;;;;;;;;1;2;Appartement;55;3;;;;;;2.342564;48.841386
2020-816597;2020-10-22;000001;Vente;1489000;20;;RUE HENRI BARBUSSE;4535;75005;75105;Paris 5e Arrondissement;75;;;75105000BG0016;;;21;;3;;4;;;;;;3;2;Appartement;94;4;;;;;;2.338963;48.842257
2020-816598;2020-10-16;000001;Vente;511000;34;;RUE SAINT JACQUES;8648;75005;75105;Paris 5e Arrondissement;75;;;75105000BO0008;;;9;36.97;;;;;;;;;1;2;Appartement;34;1;;;;;;2.345162;48.85049
2020-816601;2020-10-09;000001;Vente;330000;7;;RUE DE VALENCE;9546;75005;75105;Paris 5e Arrondissement;75;;;75105000AV0060;;;33;;;;;;;;;;1;2;Appartement;33;2;;;;;;2.349992;48.837804
2020-816607;2020-10-14;000001;Vente;650000;29;;RUE BERTHOLLET;0916;75005;75105;Paris 5e Arrondissement;75;;;75105000AW0113;;;13;49.86;33;;;;;;;;2;2;Appartement;54;2;;;;;;2.345772;48.837951
2020-816610;2020-10-30;000001;Vente;1400000;55;;BD SAINT MICHEL;8705;75005;75105;Paris 5e Arrondissement;75;;;75105000BJ0002;;;43;;5;110.47;;;;;;;2;2;Appartement;84;5;;;;;;2.341613;48.847952
2020-816613;2020-10-27;000001;Vente;56800;73;;RUE DU CARDINAL LEMOINE;1545;75005;75105;Paris 5e Arrondissement;75;;;75105000AJ0033;;;58;;;;;;;;;;1;3;Dépendance;;0;;;;;;2.350389;48.845329
2020-816614;2020-10-05;000001;Vente;50000;3;;RUE D ARRAS;0467;75005;75105;Paris 5e Arrondissement;75;;;75105000AI0035;;;25;;;;;;;;;;1;2;Appartement;8;1;;;;;;2.351972;48.847335
2020-816618;2020-11-02;000001;Vente;730000;35;;RUE PIERRE NICOLE;7467;75005;75105;Paris 5e Arrondissement;75;;;75105000BF0060;;;31;47.75;62;;;;;;;;2;2;Appartement;48;3;;;;;;2.339313;48.839933
2020-816621;2020-10-30;000001;Vente;1035000;80;;BD SAINT GERMAIN;8619;75005;75105;Paris 5e Arrondissement;75;;;75105000BQ0129;;;33;;6;81.02;;;;;;;2;2;Appartement;79;4;;;;;;2.346351;48.850877
2020-816622;2020-10-22;000001;Vente;271400;15;;RUE CUJAS;2487;75005;75105;Paris 5e Arrondissement;75;;;75105000BJ0014;;;8;18.95;;;;;;;;;1;2;Appartement;19;1;;;;;;2.342609;48.847602
2020-816624;2020-10-08;000001;Vente;585000;73;;RUE CLAUDE BERNARD;2069;75005;75105;Paris 5e Arrondissement;75;;;75105000BD0052;;;52;38.7;;;;;;;;;1;2;Appartement;38;1;;;;;;2.343693;48.840894
2020-816627;2020-10-21;000001;Vente;2114000;63;;RUE CLAUDE BERNARD;2069;75005;75105;Paris 5e Arrondissement;75;;;75105000BE0016;;;116;;;;;;;;;;1;3;Dépendance;;0;;;;;;2.344359;48.840524
2020-816627;2020-10-21;000001;Vente;2114000;63;;RUE CLAUDE BERNARD;2069;75005;75105;Paris 5e Arrondissement;75;;;75105000BE0016;;;22;;24;;5;;;;;;3;2;Appartement;153;6;;;;;;2.344359;48.840524
2020-816630;2020-11-03;000001;Vente;860000;35;;RUE PIERRE NICOLE;7467;75005;75105;Paris 5e Arrondissement;75;;;75105000BF0060;;;35;63.23;63;;;;;;;;2;2;Appartement;63;3;;;;;;2.339313;48.839933
2020-816632;2020-10-20;000001;Vente;742000;43;;RUE POLIVEAU;7576;75005;75105;Paris 5e Arrondissement;75;;;75105000AR0067;;;315;47.42;;;;;;;;;1;2;Appartement;22;1;;;;;;2.356963;48.839569
2020-816633;2020-10-17;000001;Vente;36000;282;;RUE SAINT JACQUES;8648;75005;75105;Paris 5e Arrondissement;75;;;75105000BG0050;;;40;;;;;;;;;;1;3;Dépendance;;0;;;;;;2.340889;48.841655
2020-816636;2020-10-23;000001;Vente;193400;348;;RUE SAINT JACQUES;8648;75005;75105;Paris 5e Arrondissement;75;;;75105000BF0081;;;68;10.5;;;;;;;;;1;2;Appartement;11;1;;;;;;2.339662;48.83922
2020-816637;2020-10-23;000001;Vente;180000;1;;BD SAINT MICHEL;8705;75005;75105;Paris 5e Arrondissement;75;;;75105000BP0165;;;3;29.53;;;;;;;;;1;2;Appartement;31;2;;;;;;2.34431;48.852937
2020-816638;2020-10-15;000001;Vente;34000;295;;RUE SAINT JACQUES;8648;75005;75105;Paris 5e Arrondissement;75;;;75105000BE0041;;;339;;;;;;;;;;1;3;Dépendance;;0;;;;;;2.340678;48.839452
2020-816639;2020-10-13;000001;Vente;280000;24;;RUE TOURNEFORT;9376;75005;75105;Paris 5e Arrondissement;75;;;75105000AY0030;;;7;23.3;;;;;;;;;1;2;Appartement;27;1;;;;;;2.347855;48.842494
2020-816640;2020-10-22;000001;Vente;430000;9;;RUE DE L HOTEL COLBERT;4661;75005;75105;Paris 5e Arrondissement;75;;;75105000BQ0081;;;12;37.44;;;;;;;;;1;2;Appartement;39;2;;;;;;2.348482;48.851411
2020-816650;2020-10-21;000001;Vente;871000;187;;RUE SAINT JACQUES;8648;75005;75105;Paris 5e Arrondissement;75;;;75105000BI0062;;;218;55.9;36;;;;;;;;2;2;Appartement;72;4;;;;;;2.343008;48.845165
2020-816651;2020-10-07;000001;Vente;420000;53;;RUE GEOFFROY ST HILAIRE;4108;75005;75105;Paris 5e Arrondissement;75;;;75105000AK0108;;;17;;54;44.5;;;;;;;2;2;Appartement;43;2;;;;;;2.354934;48.842988
2020-816656;2020-10-26;000001;Vente;45000;284;;RUE SAINT JACQUES;8648;75005;75105;Paris 5e Arrondissement;75;;;75105000BG0071;;;36;;;;;;;;;;1;3;Dépendance;;0;;;;;;2.340867;48.841429
2020-816656;2020-10-26;000001;Vente;45000;284;;RUE SAINT JACQUES;8648;75005;75105;Paris 5e Arrondissement;75;;;75105000BG0071;;;95;;;;;;;;;;1;3;Dépendance;;0;;;;;;2.340867;48.841429
2020-816657;2020-10-16;000001;Vente;464950;7;;RUE LINNE;5696;75005;75105;Paris 5e Arrondissement;75;;;75105000AG0070;;;20;34.98;38;;;;;;;;2;2;Appartement;35;2;;;;;;2.354343;48.844154
2020-816662;2020-11-03;000001;Vente;2550000;1;;RUE DU VAL DE GRACE;9544;75005;75105;Paris 5e Arrondissement;75;;;75105000BF0079;;;52;;;;;;;;;;1;2;Appartement;9;1;;;;;;2.34056;48.840744
2020-816662;2020-11-03;000001;Vente;2550000;1;;RUE DU VAL DE GRACE;9544;75005;75105;Paris 5e Arrondissement;75;;;75105000BF0079;;;12;146.68;;;;;;;;;1;2;Appartement;135;6;;;;;;2.34056;48.840744
2020-816663;2020-11-03;000001;Vente;170000;1;;RUE DU VAL DE GRACE;9544;75005;75105;Paris 5e Arrondissement;75;;;75105000BF0079;;;36;;;;;;;;;;1;2;Appartement;9;1;;;;;;2.34056;48.840744
2020-816663;2020-11-03;000001;Vente;170000;1;;RUE DU VAL DE GRACE;9544;75005;75105;Paris 5e Arrondissement;75;;;75105000BF0079;;;44;;;;;;;;;;1;3;Dépendance;;0;;;;;;2.34056;48.840744
2020-816665;2020-11-03;000001;Vente;1995450;61;;RUE CLAUDE BERNARD;2069;75005;75105;Paris 5e Arrondissement;75;;;75105000BE0017;;;56;142.45;57;;;;;;;;2;2;Appartement;140;5;;;;;;2.34449;48.840456
2020-816667;2020-10-30;000001;Vente;390000;56;;BD SAINT GERMAIN;8619;75005;75105;Paris 5e Arrondissement;75;;;75105000AB0042;;;25;30.3;;;;;;;;;1;2;Appartement;25;2;;;;;;2.349369;48.850219
2020-816668;2020-10-30;000001;Vente;1400000;51;;RUE GAY-LUSSAC;3998;75005;75105;Paris 5e Arrondissement;75;;;75105000BD0038;;;23;;;;;;;;;;1;2;Appartement;47;3;;;;;;2.34364;48.841587
2020-816668;2020-10-30;000001;Vente;1400000;51;;RUE GAY-LUSSAC;3998;75005;75105;Paris 5e Arrondissement;75;;;75105000BD0038;;;14;94.02;;;;;;;;;1;2;Appartement;40;3;;;;;;2.34364;48.841587
2020-816669;2020-10-22;000001;Vente;1307000;39;;RUE BUFFON;1371;75005;75105;Paris 5e Arrondissement;75;;;75105000AQ0002;;;160;;;;;;;;;;1;2;Appartement;98;4;;;;;;2.359835;48.841775
2020-816670;2020-11-02;000001;Vente;295000;8;;RUE DES ANGLAIS;0346;75005;75105;Paris 5e Arrondissement;75;;;75105000BQ0123;;;48;20.27;;;;;;;;;1;2;Appartement;20;1;;;;;;2.347556;48.850847
2020-816671;2020-10-23;000001;Vente;715650;7;;IMP ROYER-COLLARD;8420;75005;75105;Paris 5e Arrondissement;75;;;75105000BH0043;;;20;48.04;21;;41;;47;;49;;5;2;Appartement;53;3;;;;;;2.340953;48.845422
2020-816675;2020-10-27;000001;Vente;1050000;23;;RUE POLIVEAU;7576;75005;75105;Paris 5e Arrondissement;75;;;75105000AR0094;;;9;15.1;;;;;;;;;1;2;Appartement;16;1;;;;;;2.359376;48.840164
2020-816675;2020-10-27;000001;Vente;1050000;23;;RUE POLIVEAU;7576;75005;75105;Paris 5e Arrondissement;75;;;75105000AR0094;;;8;16;;;;;;;;;1;2;Appartement;17;1;;;;;;2.359376;48.840164
2020-816676;2020-10-27;000002;Vente;350000;23;;RUE POLIVEAU;7576;75005;75105;Paris 5e Arrondissement;75;;;75105000AR0094;;;12;;;;;;;;;;1;2;Appartement;16;1;;;;;;2.359376;48.840164
2020-816676;2020-10-27;000002;Vente;350000;23;;RUE POLIVEAU;7576;75005;75105;Paris 5e Arrondissement;75;;;75105000AR0094;;;12;;;;;;;;;;1;2;Appartement;17;1;;;;;;2.359376;48.840164
2020-816676;2020-10-27;000003;Vente;350000;23;;RUE POLIVEAU;7576;75005;75105;Paris 5e Arrondissement;75;;;75105000AR0094;;;15;;;;;;;;;;1;2;Appartement;17;2;;;;;;2.359376;48.840164
2020-816676;2020-10-27;000003;Vente;350000;23;;RUE POLIVEAU;7576;75005;75105;Paris 5e Arrondissement;75;;;75105000AR0094;;;16;;;;;;;;;;1;2;Appartement;16;1;;;;;;2.359376;48.840164
2020-816677;2020-10-27;000001;Vente;250000;23;;RUE POLIVEAU;7576;75005;75105;Paris 5e Arrondissement;75;;;75105000AR0094;;;3;18.4;;;;;;;;;1;2;Appartement;20;1;;;;;;2.359376;48.840164
2020-816678;2020-10-29;000001;Vente;390000;23;;RUE DE LA COLLEGIALE;2187;75005;75105;Paris 5e Arrondissement;75;;;75105000AV0009;;;46;;6;;;;;;;;2;2;Appartement;37;2;;;;;;2.35154;48.838296
2020-816685;2020-09-25;000001;Vente;429000;35;;RUE CLAUDE BERNARD;2069;75005;75105;Paris 5e Arrondissement;75;;;75105000AW0039;;;18;36.17;34;;;;;;;;2;2;Appartement;45;1;;;;;;2.347251;48.839558
2020-816692;2020-10-16;000001;Vente;722500;4;;RUE DES FOSSES ST MARCEL;3751;75005;75105;Paris 5e Arrondissement;75;;;75105000AS0035;;;116;59.01;135;;;;;;;;2;2;Appartement;58;3;;;;;;2.355925;48.839315
2020-816693;2020-10-28;000001;Vente;2057000;1;;RUE DU VAL DE GRACE;9544;75005;75105;Paris 5e Arrondissement;75;;;75105000BF0079;;;10;149.65;62;;;;;;;;2;2;Appartement;120;6;;;;;;2.34056;48.840744
2020-816695;2020-10-14;000001;Vente;868500;32;;RUE PIERRE NICOLE;7467;75005;75105;Paris 5e Arrondissement;75;;;75105000BF0042;;;57;;;;;;;;;;1;3;Dépendance;;0;;;;;;2.33894;48.84051
2020-816695;2020-10-14;000001;Vente;868500;32;;RUE PIERRE NICOLE;7467;75005;75105;Paris 5e Arrondissement;75;;;75105000BF0042;;;37;;8;71.09;;;;;;;2;2;Appartement;72;3;;;;;;2.33894;48.84051
2020-816698;2020-11-04;000001;Vente;245000;22;;RUE DES BOULANGERS;1156;75005;75105;Paris 5e Arrondissement;75;;;75105000AH0050;;;13;19.5;;;;;;;;;1;2;Appartement;20;1;;;;;;2.353344;48.846042
2020-816700;2020-10-28;000001;Vente;284000;18;;RUE DES LYONNAIS;5868;75005;75105;Paris 5e Arrondissement;75;;;75105000AW0119;;;137;19;;;;;;;;;1;2;Appartement;18;1;;;;;;2.346918;48.838575
2020-816705;2020-10-26;000001;Vente;1482885;312;;RUE SAINT JACQUES;8648;75005;75105;Paris 5e Arrondissement;75;;;75105000BF0078;;;22;;7;80.11;;;;;;;2;2;Appartement;75;4;;;;;;2.340568;48.84061
2020-816711;2020-10-28;000001;Vente;138000;33;B;RUE HENRI BARBUSSE;4535;75005;75105;Paris 5e Arrondissement;75;;;75105000BF0044;;;18;;;;;;;;;;1;2;Appartement;7;1;;;;;;2.33883;48.840746
2020-816714;2020-10-21;000001;Vente;524000;9;;RUE BERTHOLLET;0916;75005;75105;Paris 5e Arrondissement;75;;;75105000AX0003;;;37;;;;;;;;;;1;2;Appartement;50;2;;;;;;2.346084;48.839554
2020-816714;2020-10-21;000001;Vente;524000;9;;RUE BERTHOLLET;0916;75005;75105;Paris 5e Arrondissement;75;;;75105000AX0003;;;30;;;;;;;;;;1;2;Appartement;67;4;;;;;;2.346084;48.839554
2020-816715;2020-11-06;000001;Vente;3000;6;;RUE SCIPION;8884;75005;75105;Paris 5e Arrondissement;75;;;75105000AS0003;;;148;;;;;;;;;;1;2;Appartement;30;1;;;;;;;
2020-816719;2020-11-03;000001;Vente;190000;13;;RUE POLIVEAU;7576;75005;75105;Paris 5e Arrondissement;75;;;75105000AR0028;;;68;;;;;;;;;;1;2;Appartement;15;1;;;;;;2.3603;48.840064
2020-816731;2020-11-05;000001;Vente;678205;12;B;RUE DU VAL DE GRACE;9544;75005;75105;Paris 5e Arrondissement;75;;;75105000BG0032;;;54;39.71;;;;;;;;;1;2;Appartement;30;2;;;;;;2.339395;48.841515
2020-816731;2020-11-05;000001;Vente;678205;12;B;RUE DU VAL DE GRACE;9544;75005;75105;Paris 5e Arrondissement;75;;;75105000BG0032;;;1;;;;;;;;;;1;3;Dépendance;;0;;;;;;2.339395;48.841515
2020-816732;2020-11-06;000001;Vente;247000;14;;RUE XAVIER PRIVAS;9975;75005;75105;Paris 5e Arrondissement;75;;;75105000BP0079;;;414;18.95;;;;;;;;;1;4;Local industriel. commercial ou assimilé;19;0;;;;;;2.345163;48.852819
2020-816733;2020-11-02;000001;Vente;227000;41;;RUE DES ECOLES;3098;75005;75105;Paris 5e Arrondissement;75;;;75105000BM0037;;;28;19.45;;;;;;;;;1;4;Local industriel. commercial ou assimilé;23;0;;;;;;2.346992;48.848775
2020-816734;2020-10-15;000001;Vente;570000;58;;BD DE PORT-ROYAL;7740;75005;75105;Paris 5e Arrondissement;75;;;75105000AW0105;;;17;62.63;45;;;;;;;;2;2;Appartement;62;3;;;;;;2.34611;48.837832
2020-816750;2020-10-21;000001;Vente;395000;30;;RUE DU FER A MOULIN;3573;75005;75105;Paris 5e Arrondissement;75;;;75105000AU0042;;;108;;168;;;;;;;;2;2;Appartement;38;2;;;;;;2.353139;48.839112
2020-816751;2020-11-13;000001;Vente;572000;6;;IMP ROYER-COLLARD;8420;75005;75105;Paris 5e Arrondissement;75;;;75105000BH0006;;;17;;41;;;;;;;;2;2;Appartement;48;2;;;;;;2.340546;48.845799
2020-816752;2020-10-30;000001;Vente;440000;19;;RUE PASCAL;7076;75005;75105;Paris 5e Arrondissement;75;;;75105000AV0071;;;15;34.45;;;;;;;;;1;2;Appartement;40;3;;;;;;2.349543;48.837919
2020-816753;2020-10-14;000001;Vente;357000;26;;RUE DES BOULANGERS;1156;75005;75105;Paris 5e Arrondissement;75;;;75105000AH0029;;;114;24.7;;;;;;;;;1;2;Appartement;20;1;;;;;;2.353339;48.846271
2020-816756;2020-10-29;000001;Vente;1250000;49;;BD SAINT GERMAIN;8619;75005;75105;Paris 5e Arrondissement;75;;;75105000BO0028;;;6;104.01;;;;;;;;;1;4;Local industriel. commercial ou assimilé;113;0;;;;;;2.347738;48.85002
2020-816757;2020-10-27;000001;Vente;225000;84;;RUE MONGE;6432;75005;75105;Paris 5e Arrondissement;75;;;75105000AL0033;;;2;25.71;;;;;;;;;1;4;Local industriel. commercial ou assimilé;24;0;;;;;;2.351745;48.841913
2020-816758;2020-11-10;000001;Vente;520000;10;;RUE DE L ECOLE POLYTECHNIQUE;3095;75005;75105;Paris 5e Arrondissement;75;;;75105000BL0034;;;4;40.69;55;;;;;;;;2;2;Appartement;43;2;;;;;;2.347957;48.847773
2020-816762;2020-11-12;000001;Vente;455000;340;;RUE SAINT JACQUES;8648;75005;75105;Paris 5e Arrondissement;75;;;75105000BF0068;;;34;35.65;;;;;;;;;1;2;Appartement;34;1;;;;;;2.339845;48.839662
2020-816764;2020-11-09;000001;Vente;227200;45;;RUE LINNE;5696;75005;75105;Paris 5e Arrondissement;75;;;75105000AH0016;;;47;12.25;;;;;;;;;1;2;Appartement;13;1;;;;;;2.35411;48.846262
2020-816768;2020-11-06;000001;Vente;325000;83;;RUE MONGE;6432;75005;75105;Paris 5e Arrondissement;75;;;75105000AK0053;;;12;;22;;;;;;;;2;2;Appartement;30;2;;;;;;2.352311;48.84229
2020-816769;2020-11-12;000001;Vente;725000;12;B;RUE DU VAL DE GRACE;9544;75005;75105;Paris 5e Arrondissement;75;;;75105000BG0032;;;15;;;;;;;;;;1;4;Local industriel. commercial ou assimilé;62;0;;;;;;2.339395;48.841515
2020-816771;2020-11-06;000001;Vente;265000;70;;BD DE PORT-ROYAL;7740;75005;75105;Paris 5e Arrondissement;75;;;75105000AW0006;;;248;;;;;;;;;;1;3;Dépendance;;0;;;;;;2.345164;48.838267
2020-816772;2020-11-04;000001;Vente;1240000;133;;BD SAINT MICHEL;8705;75005;75105;Paris 5e Arrondissement;75;;;75105000BG0020;;;42;;54;90.66;;;;;;;2;2;Appartement;60;3;;;;;;2.338365;48.842013
2020-816775;2020-11-12;000001;Vente;300000;20;;RUE HENRI BARBUSSE;4535;75005;75105;Paris 5e Arrondissement;75;;;75105000BG0016;;;18;;5;31.48;;;;;;;2;2;Appartement;32;2;;;;;;2.338963;48.842257
2020-816776;2020-11-05;000001;Vente;312000;19;;RUE POLIVEAU;7576;75005;75105;Paris 5e Arrondissement;75;;;75105000AR0025;;;113;;139;26.89;;;;;;;2;2;Appartement;29;1;;;;;;2.359769;48.840017
2020-816777;2020-11-13;000001;Vente;950000;68;;RUE DE LA MONTGN STE GENEVIEVE;6448;75005;75105;Paris 5e Arrondissement;75;;;75105000BL0068;;;106;56.24;114;;;;;;;;2;2;Appartement;57;3;;;;;;2.347599;48.846862
2020-816778;2020-11-03;000001;Vente;720000;5;;RUE CLOTAIRE;2143;75005;75105;Paris 5e Arrondissement;75;;;75105000BK0036;;;4;52.98;;;;;;;;;1;2;Appartement;56;3;;;;;;2.344737;48.845523
2020-816780;2020-11-03;000001;Vente;210000;71;;BD SAINT GERMAIN;8619;75005;75105;Paris 5e Arrondissement;75;;;75105000BO0006;;;;;;;;;;;;;0;4;Local industriel. commercial ou assimilé;1529;0;S;sols;;;618;2.345031;48.850589
2020-816780;2020-11-03;000001;Vente;210000;71;;BD SAINT GERMAIN;8619;75005;75105;Paris 5e Arrondissement;75;;;75105000BO0006;;;;;;;;;;;;;0;4;Local industriel. commercial ou assimilé;297;0;S;sols;;;618;2.345031;48.850589
2020-816780;2020-11-03;000001;Vente;210000;34;;RUE SAINT JACQUES;8648;75005;75105;Paris 5e Arrondissement;75;;;75105000BO0008;;;3;24.47;6;24.78;;;;;;;2;4;Local industriel. commercial ou assimilé;58;0;;;;;;2.345162;48.85049
2020-816781;2020-10-29;000001;Vente;259000;2;;RUE TOURNEFORT;9376;75005;75105;Paris 5e Arrondissement;75;;;75105000AZ0034;;;3;;;;;;;;;;1;2;Appartement;18;1;;;;;;2.347964;48.844321
2020-816784;2020-10-27;000001;Vente;43000;5;;RUE MALEBRANCHE;5949;75005;75105;Paris 5e Arrondissement;75;;;75105000BI0036;;;429;;;;;;;;;;1;3;Dépendance;;0;;;;;;2.34251;48.846121
2020-816785;2020-11-09;000001;Vente;11265;282;;RUE SAINT JACQUES;8648;75005;75105;Paris 5e Arrondissement;75;;;75105000BG0050;;;86;;87;;;;;;;;2;2;Appartement;22;1;;;;;;2.340889;48.841655
2020-816786;2020-11-17;000001;Vente;1500;3;;RUE DU POT DE FER;7752;75005;75105;Paris 5e Arrondissement;75;;;75105000AY0037;;;31;;;;;;;;;;1;2;Appartement;25;1;;;;;;2.349218;48.842966
2020-816791;2020-10-29;000001;Vente;777404;1;;RUE DANTE;2549;75005;75105;Paris 5e Arrondissement;75;;;75105000BQ0113;;;24;;45;;;;;;;;2;2;Appartement;63;3;;;;;;2.34723;48.851277
2020-816795;2020-11-17;000001;Vente;240000;14;;RUE DE QUATREFAGES;7911;75005;75105;Paris 5e Arrondissement;75;;;75105000AK0104;;;33;18.84;44;;;;;;;;2;2;Appartement;20;1;;;;;;2.35459;48.843295
2020-816797;2020-11-10;000001;Vente;710000;10;;RUE MONGE;6432;75005;75105;Paris 5e Arrondissement;75;;;75105000AC0091;;;42;52.19;70;;;;;;;;2;2;Appartement;52;3;;;;;;2.349305;48.849035
2020-816806;2020-11-17;000001;Vente;676583;30;;RUE DES ECOLES;3098;75005;75105;Paris 5e Arrondissement;75;;;75105000BO0046;;;10;50.29;;;;;;;;;1;2;Appartement;55;3;;;;;;2.347359;48.849108
2020-816808;2020-10-23;000001;Vente;661500;6;;BD SAINT GERMAIN;8619;75005;75105;Paris 5e Arrondissement;75;;;75105000AD0005;;;26;;;;;;;;;;1;3;Dépendance;;0;;;;;;2.355266;48.849625
2020-816808;2020-10-23;000001;Vente;661500;6;;BD SAINT GERMAIN;8619;75005;75105;Paris 5e Arrondissement;75;;;75105000AD0005;;;26;;;;;;;;;;1;2;Appartement;50;2;;;;;;2.355266;48.849625
2020-816808;2020-10-23;000001;Vente;661500;6;;BD SAINT GERMAIN;8619;75005;75105;Paris 5e Arrondissement;75;;;75105000AD0005;;;9;57.43;;;;;;;;;1;2;Appartement;42;3;;;;;;2.355266;48.849625
2020-816812;2020-11-16;000001;Vente;299250;42;;RUE PIERRE NICOLE;7467;75005;75105;Paris 5e Arrondissement;75;;;75105000BF0037;;;18;19.55;;;;;;;;;1;2;Appartement;20;1;;;;;;2.338585;48.839808
2020-816813;2020-11-16;000001;Vente;1500000;11;;RUE D ULM;9517;75005;75105;Paris 5e Arrondissement;75;;;75105000AZ0003;;;45;;;;;;;;;;1;3;Dépendance;;0;;;;;;2.345625;48.844625
2020-816813;2020-11-16;000001;Vente;1500000;11;;RUE D ULM;9517;75005;75105;Paris 5e Arrondissement;75;;;75105000AZ0003;;;105;95.05;33;;;;;;;;2;2;Appartement;84;4;;;;;;2.345625;48.844625
2020-816816;2020-11-05;000001;Vente;280000;4;;RUE VICTOR COUSIN;9751;75005;75105;Paris 5e Arrondissement;75;;;75105000BN0039;;;8;19.43;;;;;;;;;1;2;Appartement;27;1;;;;;;2.342517;48.848222
2020-816819;2020-10-28;000001;Vente;68000;13;;RUE PIERRE NICOLE;7467;75005;75105;Paris 5e Arrondissement;75;;;75105000BG0056;;;140;;;;;;;;;;1;3;Dépendance;;0;;;;;;2.340321;48.841461
2020-816820;2020-11-10;000001;Vente;29400;27;;RUE BROCA;1313;75005;75105;Paris 5e Arrondissement;75;;;75105000AW0068;;;56;;;;;;;;;;1;3;Dépendance;;0;;;;;;2.348309;48.837769
2020-816828;2020-11-04;000001;Vente;177500;11;;RUE DE LA CLEF;2094;75005;75105;Paris 5e Arrondissement;75;;;75105000AU0080;;;68;14.56;;;;;;;;;1;2;Appartement;19;1;;;;;;2.353144;48.839709
2020-816829;2020-11-10;000001;Vente;390000;22;;RUE DES CARMES;1554;75005;75105;Paris 5e Arrondissement;75;;;75105000BM0033;;;17;35.69;;;;;;;;;1;2;Appartement;35;2;;;;;;2.34701;48.848661
2020-816835;2020-11-23;000001;Vente;922330;137;;BD SAINT MICHEL;8705;75005;75105;Paris 5e Arrondissement;75;;;75105000BG0022;;;18;66.95;57;;;;;;;;2;2;Appartement;70;3;;;;;;2.338201;48.841803
2020-816836;2020-11-12;000001;Vente;235000;6;;PL MONGE;6431;75005;75105;Paris 5e Arrondissement;75;;;75105000AK0028;;;17;17.39;;;;;;;;;1;2;Appartement;17;1;;;;;;2.351584;48.843343
2020-816837;2020-10-14;000001;Vente;1100000;63;;QUAI DE LA TOURNELLE;9380;75005;75105;Paris 5e Arrondissement;75;;;75105000AB0087;;;9;;;;;;;;;;1;3;Dépendance;;0;;;;;;2.350829;48.850989
2020-816837;2020-10-14;000001;Vente;1100000;63;;QUAI DE LA TOURNELLE;9380;75005;75105;Paris 5e Arrondissement;75;;;75105000AB0087;;;4;95.1;;;;;;;;;1;4;Local industriel. commercial ou assimilé;110;0;;;;;;2.350829;48.850989
2020-816843;2020-11-03;000001;Vente;14000;23;;RUE PASCAL;7076;75005;75105;Paris 5e Arrondissement;75;;;75105000AV0051;;;37;;;;;;;;;;1;3;Dépendance;;0;;;;;;2.349512;48.837359
2020-816845;2020-11-05;000001;Vente;1535000;39;;RUE DE L ARBALETE;0405;75005;75105;Paris 5e Arrondissement;75;;;75105000AW0037;;;70;;;;;;;;;;1;2;Appartement;89;4;;;;;;2.347145;48.839106
2020-816845;2020-11-05;000001;Vente;1535000;39;;RUE DE L ARBALETE;0405;75005;75105;Paris 5e Arrondissement;75;;;75105000AW0037;;;45;95.95;;;;;;;;;1;2;Appartement;95;4;;;;;;2.347145;48.839106
2020-816846;2020-10-27;000001;Vente;528000;10;B;AV DES GOBELINS;4209;75005;75105;Paris 5e Arrondissement;75;;;75105000AV0058;;;11;50.8;36;;;;;;;;2;2;Appartement;50;2;;;;;;2.350009;48.837597
2020-816847;2020-11-16;000001;Vente;150000;22;;BD DE L HOPITAL;4649;75005;75105;Paris 5e Arrondissement;75;;;75105000AQ0060;;;69;10.95;;;;;;;;;1;2;Appartement;12;1;;;;;;2.362449;48.841631
2020-816859;2020-11-17;000001;Vente;1850000;15;;RUE BUFFON;1371;75005;75105;Paris 5e Arrondissement;75;;;75105000AQ0053;;;254;;323;130.32;;;;;;;2;2;Appartement;133;5;;;;;;2.362593;48.842209
2020-816859;2020-11-17;000001;Vente;1850000;15;;RUE BUFFON;1371;75005;75105;Paris 5e Arrondissement;75;;;75105000AQ0053;;;38;;;;;;;;;;1;3;Dépendance;;0;;;;;;2.362593;48.842209
2020-816859;2020-11-17;000001;Vente;1850000;15;;RUE BUFFON;1371;75005;75105;Paris 5e Arrondissement;75;;;75105000AQ0053;;;47;;;;;;;;;;1;3;Dépendance;;0;;;;;;2.362593;48.842209
2020-816868;2020-11-17;000001;Vente;580000;5;;CITE DU CARDINAL LEMOINE;1543;75005;75105;Paris 5e Arrondissement;75;;;75105000AC0052;;;25;41.88;40;;;;;;;;2;2;Appartement;41;2;;;;;;2.353021;48.848605
2020-816870;2020-11-13;000001;Vente;890000;6;;RUE SCIPION;8884;75005;75105;Paris 5e Arrondissement;75;;;75105000AS0003;;;222;;;;;;;;;;1;2;Appartement;29;1;;;;;;;
2020-816870;2020-11-13;000001;Vente;890000;6;;RUE SCIPION;8884;75005;75105;Paris 5e Arrondissement;75;;;75105000AS0003;;;222;;;;;;;;;;1;2;Appartement;39;2;;;;;;;
2020-816871;2020-11-12;000001;Vente;140000;12;;RUE BERTHOLLET;0916;75005;75105;Paris 5e Arrondissement;75;;;75105000AW0015;;;21;11.36;;;;;;;;;1;2;Appartement;12;1;;;;;;2.345622;48.83943
2020-816872;2020-11-13;000001;Vente;555000;19;;RUE GAY-LUSSAC;3998;75005;75105;Paris 5e Arrondissement;75;;;75105000BH0053;;;10;43.09;9;37.85;;;;;;;2;2;Appartement;49;2;;;;;;2.341739;48.845361
2020-816877;2020-11-19;000001;Vente;631600;29;;RUE DE LA CLEF;2094;75005;75105;Paris 5e Arrondissement;75;;;75105000AL0075;;;12;;23;;;;;;;;2;2;Appartement;47;3;;;;;;2.352446;48.841711
2020-816885;2020-11-25;000001;Vente;18400000;11;;RUE DE POISSY;7566;75005;75105;Paris 5e Arrondissement;75;;;75105000AC0046;;;;;;;;;;;;;0;4;Local industriel. commercial ou assimilé;1225;0;S;sols;;;421;2.352887;48.849051
2020-816886;2020-11-04;000001;Vente;480000;16;;RUE SAINT SEVERIN;8760;75005;75105;Paris 5e Arrondissement;75;;;75105000BP0049;;;52;33.74;;;;;;;;;1;2;Appartement;35;2;;;;;;2.345548;48.852546
2020-816889;2020-11-25;000001;Vente;307250;93;;RUE MONGE;6432;75005;75105;Paris 5e Arrondissement;75;;;75105000AL0111;;;59;23.66;;;;;;;;;1;2;Appartement;25;1;;;;;;2.352439;48.841463
2020-816890;2020-11-25;000001;Vente;850000;9;B;RUE DE VALENCE;9546;75005;75105;Paris 5e Arrondissement;75;;;75105000AV0053;;;69;;8;66.03;;;;;;;2;2;Appartement;49;2;;;;;;2.349713;48.837577
2020-816892;2020-11-23;000001;Vente;55000;5;;BD SAINT MICHEL;8705;75005;75105;Paris 5e Arrondissement;75;;;75105000BP0159;;;5;10.77;6;;;;;;;;2;2;Appartement;11;1;;;;;;2.344051;48.852523
2020-816898;2020-11-26;000001;Vente;123080;7;;RUE DES FEUILLANTINES;3630;75005;75105;Paris 5e Arrondissement;75;;;75105000BD0060;;;28;11.03;;;;;;;;;1;2;Appartement;12;1;;;;;;2.34271;48.841336
2020-816900;2020-11-12;000001;Vente;921500;23;;RUE LARREY;5362;75005;75105;Paris 5e Arrondissement;75;;;75105000AK0066;;;20;53.82;41;;;;;;;;2;2;Appartement;52;5;;;;;;2.352529;48.842852
2020-816901;2020-11-03;000001;Vente;230000;18;B;RUE HENRI BARBUSSE;4535;75005;75105;Paris 5e Arrondissement;75;;;75105000BG0015;;;33;;;;;;;;;;1;3;Dépendance;;0;;;;;;2.338847;48.842447
2020-816904;2020-11-06;000001;Vente;565000;5;;RUE DES BOULANGERS;1156;75005;75105;Paris 5e Arrondissement;75;;;75105000AJ0087;;;1;71.96;;;;;;;;;1;2;Appartement;60;2;;;;;;2.354179;48.845827
2020-816905;2020-11-09;000001;Vente;52500;17;;RUE LINNE;5696;75005;75105;Paris 5e Arrondissement;75;;;75105000AG0020;;;36;;;;;;;;;;1;3;Dépendance;;0;;;;;;2.354287;48.844841
2020-816909;2020-11-17;000001;Vente;470000;3;;RUE NICOLAS HOUEL;6761;75005;75105;Paris 5e Arrondissement;75;;;75105000AQ0033;;;11;41.48;37;;;;;;;;2;2;Appartement;41;2;;;;;;2.362185;48.842014
2020-816911;2020-11-02;000001;Vente;330000;41;;RUE PIERRE NICOLE;7467;75005;75105;Paris 5e Arrondissement;75;;;75105000BF0062;;;40;27.54;;;;;;;;;1;4;Local industriel. commercial ou assimilé;75;0;;;;;;2.338896;48.83969
2020-816912;2020-11-17;000001;Vente;543600;11;;RUE DAUBENTON;2580;75005;75105;Paris 5e Arrondissement;75;;;75105000AT0021;;;302;;;;;;;;;;1;3;Dépendance;;0;;;;;;2.354436;48.841172
2020-816912;2020-11-17;000001;Vente;543600;11;;RUE DAUBENTON;2580;75005;75105;Paris 5e Arrondissement;75;;;75105000AT0021;;;218;;295;;;;;;;;2;2;Appartement;50;2;;;;;;2.354436;48.841172
2020-816914;2020-11-27;000001;Vente;269000;22;;RUE DES CARMES;1554;75005;75105;Paris 5e Arrondissement;75;;;75105000BM0033;;;19;25.14;27;;;;;;;;2;2;Appartement;25;1;;;;;;2.34701;48.848661
2020-816915;2020-11-27;000001;Vente;100;22;;RUE DES CARMES;1554;75005;75105;Paris 5e Arrondissement;75;;;75105000BM0033;;;27;;;;;;;;;;1;2;Appartement;25;1;;;;;;2.34701;48.848661
2020-816916;2020-10-23;000001;Vente;880000;7;;RUE DE LA BUCHERIE;1357;75005;75105;Paris 5e Arrondissement;75;;;75105000BQ0079;;;35;;5;;;;;;;;2;2;Appartement;86;1;;;;;;2.348742;48.851444
2020-816921;2020-12-02;000001;Vente;119000;24;;RUE DE LA MONTGN STE GENEVIEVE;6448;75005;75105;Paris 5e Arrondissement;75;;;75105000BL0017;;;15;7.3;;;;;;;;;1;2;Appartement;12;1;;;;;;2.348159;48.8484
2020-816928;2020-11-12;000001;Vente;415000;11;;AV DES GOBELINS;4209;75005;75105;Paris 5e Arrondissement;75;;;75105000AV0017;;;26;;;;;;;;;;1;2;Appartement;37;2;;;;;;2.351691;48.837916
2020-816930;2020-11-26;000001;Vente;1066700;30;;RUE VAUQUELIN;9626;75005;75105;Paris 5e Arrondissement;75;;;75105000AY0008;;;17;;18;71.35;;;;;;;2;2;Appartement;75;3;;;;;;2.346245;48.840614
2020-816937;2020-11-27;000001;Vente;294000;11;;RUE VICTOR COUSIN;9751;75005;75105;Paris 5e Arrondissement;75;;;75105000BJ0016;;;21;18.3;;;;;;;;;1;2;Appartement;31;2;;;;;;2.342553;48.847538
2020-816938;2020-11-27;000001;Vente;239000;11;;RUE VICTOR COUSIN;9751;75005;75105;Paris 5e Arrondissement;75;;;75105000BJ0016;;;20;;37;;;;;;;;2;2;Appartement;31;2;;;;;;2.342553;48.847538
2020-816940;2020-11-26;000001;Vente;115000;39;;RUE DE L ARBALETE;0405;75005;75105;Paris 5e Arrondissement;75;;;75105000AW0037;;;18;;;;;;;;;;1;3;Dépendance;;0;;;;;;2.347145;48.839106
2020-816945;2020-11-18;000001;Vente;372246.5;8;;RUE AMYOT;0302;75005;75105;Paris 5e Arrondissement;75;;;75105000AZ0028;;;59;25.83;;;;;;;;;1;2;Appartement;26;2;;;;;;2.347355;48.843616
2020-816948;2020-12-02;000001;Vente;37500;2;;RUE LAROMIGUIERE;5360;75005;75105;Paris 5e Arrondissement;75;;;75105000AZ0097;;;225;;;;;;;;;;1;3;Dépendance;;0;;;;;;2.347002;48.844375
2020-816948;2020-12-02;000001;Vente;37500;2;;RUE LAROMIGUIERE;5360;75005;75105;Paris 5e Arrondissement;75;;;75105000AZ0097;;;241;;;;;;;;;;1;3;Dépendance;;0;;;;;;2.347002;48.844375
2020-816954;2020-11-26;000001;Vente;570950;22;;RUE DES BOULANGERS;1156;75005;75105;Paris 5e Arrondissement;75;;;75105000AH0050;;;115;43.21;133;;;;;;;;2;2;Appartement;45;2;;;;;;2.353344;48.846042
2020-816956;2020-12-01;000001;Vente;1510000;262;;RUE SAINT JACQUES;8648;75005;75105;Paris 5e Arrondissement;75;;;75105000BG0063;;;1;;41;;;;;;;;2;2;Appartement;107;3;;;;;;2.341017;48.842487
2020-816956;2020-12-01;000001;Vente;1510000;262;;RUE SAINT JACQUES;8648;75005;75105;Paris 5e Arrondissement;75;;;75105000BG0063;;;28;;;;;;;;;;1;3;Dépendance;;0;;;;;;2.341017;48.842487
2020-816958;2020-11-26;000001;Vente;380000;15;;RUE DE L ESTRAPADE;3377;75005;75105;Paris 5e Arrondissement;75;;;75105000AZ0009;;;17;;2;;;;;;;;2;2;Appartement;55;3;;;;;;2.346576;48.844517
2020-816963;2020-11-23;000001;Vente;570000;13;;BD SAINT GERMAIN;8619;75005;75105;Paris 5e Arrondissement;75;;;75105000AC0038;;;18;33.89;;;;;;;;;1;2;Appartement;33;2;;;;;;2.353984;48.849254
2020-816970;2020-12-02;000001;Vente;600;22;;RUE DES CARMES;1554;75005;75105;Paris 5e Arrondissement;75;;;75105000BM0033;;;24;;32;;;;;;;;2;2;Appartement;49;3;;;;;;2.34701;48.848661
2020-816970;2020-12-02;000001;Vente;600;22;;RUE DES CARMES;1554;75005;75105;Paris 5e Arrondissement;75;;;75105000BM0033;;;25;;26;;;;;;;;2;2;Appartement;35;2;;;;;;2.34701;48.848661
2020-816971;2020-11-13;000001;Vente;805000;263;;RUE SAINT JACQUES;8648;75005;75105;Paris 5e Arrondissement;75;;;75105000BD0073;;;3;;;;;;;;;;1;2;Appartement;47;3;;;;;;2.341487;48.841903
2020-816971;2020-11-13;000001;Vente;805000;263;;RUE SAINT JACQUES;8648;75005;75105;Paris 5e Arrondissement;75;;;75105000BD0073;;;16;;2;;4;;;;;;3;4;Local industriel. commercial ou assimilé;61;0;;;;;;2.341487;48.841903
2020-816974;2020-12-02;000001;Vente;715000;37;;BD SAINT MICHEL;8705;75005;75105;Paris 5e Arrondissement;75;;;75105000BN0006;;;11;;32;;6;;;;;;3;2;Appartement;102;4;;;;;;2.342544;48.849429
2020-816978;2020-11-13;000001;Vente;580000;38;;BD SAINT GERMAIN;8619;75005;75105;Paris 5e Arrondissement;75;;;75105000AB0115;;;22;;;;;;;;;;1;2;Appartement;54;2;;;;;;2.351391;48.849889
2020-816978;2020-11-13;000001;Vente;580000;38;;BD SAINT GERMAIN;8619;75005;75105;Paris 5e Arrondissement;75;;;75105000AB0115;;;57;;;;;;;;;;1;3;Dépendance;;0;;;;;;2.351391;48.849889
2020-816982;2020-12-01;000001;Vente;335000;24;;RUE TOURNEFORT;9376;75005;75105;Paris 5e Arrondissement;75;;;75105000AY0030;;;111;26.75;;;;;;;;;1;2;Appartement;18;2;;;;;;2.347855;48.842494
2020-816985;2020-11-23;000001;Vente;1087505.2;40;;RUE LACEPEDE;5220;75005;75105;Paris 5e Arrondissement;75;;;75105000AJ0138;;;103;90.06;151;;;;;;;;2;2;Appartement;87;3;;;;;;2.350514;48.844496
2020-816988;2020-11-17;000001;Vente;1154896;80;;BD SAINT MARCEL;8690;75005;75105;Paris 5e Arrondissement;75;;;75105000AS0038;;;119;84.13;82;;;;;;;;2;2;Appartement;85;3;;;;;;2.353223;48.837679
2020-816991;2020-11-27;000001;Vente;770000;4;;RUE DES ECOLES;3098;75005;75105;Paris 5e Arrondissement;75;;;75105000AC0063;;;110;;130;56.09;;;;;;;2;2;Appartement;60;3;;;;;;2.352206;48.84781
2020-816992;2020-12-04;000001;Vente;475000;5;;RUE DES ECOLES;3098;75005;75105;Paris 5e Arrondissement;75;;;75105000AI0029;;;14;39.02;16;39.02;;;;;;;2;2;Appartement;39;2;;;;;;2.352091;48.847464
2020-817000;2020-12-08;000001;Vente;1830000;27;;QUAI SAINT MICHEL;8710;75005;75105;Paris 5e Arrondissement;75;;;75105000BP0005;;;1;;16;318.8;17;;18;;2;;5;4;Local industriel. commercial ou assimilé;224;0;;;;;;2.344902;48.853392
2020-817004;2020-12-03;000001;Vente;25000;3;;RUE DU PUITS DE L ERMITE;7887;75005;75105;Paris 5e Arrondissement;75;;;75105000AL0099;;;142;;;;;;;;;;1;3;Dépendance;;0;;;;;;2.353262;48.842024
2020-817004;2020-12-03;000001;Vente;25000;3;;RUE DU PUITS DE L ERMITE;7887;75005;75105;Paris 5e Arrondissement;75;;;75105000AL0099;;;143;;;;;;;;;;1;3;Dépendance;;0;;;;;;2.353262;48.842024
2020-817005;2020-12-03;000001;Vente;780000;14;;RUE DE QUATREFAGES;7911;75005;75105;Paris 5e Arrondissement;75;;;75105000AK0104;;;5;;;;;;;;;;1;2;Appartement;65;4;;;;;;2.35459;48.843295
2020-817007;2020-12-10;000001;Vente;248000;9;;RUE DE VALENCE;9546;75005;75105;Paris 5e Arrondissement;75;;;75105000AV0059;;;21;17.49;;;;;;;;;1;2;Appartement;17;1;;;;;;2.349829;48.83767
2020-817010;2020-11-28;000001;Vente;396315;12;B;RUE DU VAL DE GRACE;9544;75005;75105;Paris 5e Arrondissement;75;;;75105000BG0032;;;59;28.13;;;;;;;;;1;2;Appartement;28;1;;;;;;2.339395;48.841515
2020-817011;2020-11-26;000001;Vente;1906125;9;;RUE LAROMIGUIERE;5360;75005;75105;Paris 5e Arrondissement;75;;;75105000AZ0027;;;251;;;;;;;;;;1;3;Dépendance;;0;;;;;;2.347325;48.843748
2020-817011;2020-11-26;000001;Vente;1906125;9;;RUE LAROMIGUIERE;5360;75005;75105;Paris 5e Arrondissement;75;;;75105000AZ0027;;;149;;;;;;;;;;1;3;Dépendance;;0;;;;;;2.347325;48.843748
2020-817014;2020-12-15;000001;Vente;253330;28;;RUE DE POISSY;7566;75005;75105;Paris 5e Arrondissement;75;;;75105000AC0028;;;218;18.18;;;;;;;;;1;2;Appartement;23;1;;;;;;2.351686;48.84814
2020-817015;2020-12-04;000001;Vente;720000;5;;RUE CLOTAIRE;2143;75005;75105;Paris 5e Arrondissement;75;;;75105000BK0036;;;1;;11;;2;;;;;;3;4;Local industriel. commercial ou assimilé;93;0;;;;;;2.344737;48.845523
2020-817016;2020-12-04;000001;Vente;272840;5;;RUE CLOTAIRE;2143;75005;75105;Paris 5e Arrondissement;75;;;75105000BK0036;;;3;22.9;;;;;;;;;1;2;Appartement;23;1;;;;;;2.344737;48.845523
2020-817025;2020-12-02;000001;Vente;91000;9;;RUE DES BOULANGERS;1156;75005;75105;Paris 5e Arrondissement;75;;;75105000AJ0084;;;72;;;;;;;;;;1;2;Appartement;9;1;;;;;;2.354023;48.84571
2020-817026;2020-12-04;000001;Vente;260000;16;;RUE DES FOSSES ST BERNARD;3747;75005;75105;Paris 5e Arrondissement;75;;;75105000AD0028;;;1;;3;;;;;;;;2;4;Local industriel. commercial ou assimilé;26;0;;;;;;2.354753;48.848666
2020-817029;2020-12-16;000001;Vente;718000;26;;RUE CENSIER;1642;75005;75105;Paris 5e Arrondissement;75;;;75105000AU0029;;;15;;4;;;;;;;;2;2;Appartement;58;3;;;;;;2.352097;48.84042
2020-817030;2020-11-25;000001;Vente;450000;8;;BD SAINT MARCEL;8690;75005;75105;Paris 5e Arrondissement;75;;;75105000AR0038;;;32;;;;;;;;;;1;2;Appartement;105;5;;;;;;2.360829;48.84
2020-817035;2020-12-11;000001;Vente;532000;12;;RUE MONGE;6432;75005;75105;Paris 5e Arrondissement;75;;;75105000AC0090;;;108;;42;37.52;;;;;;;2;2;Appartement;36;2;;;;;;2.349227;48.84893
2020-817037;2020-12-14;000001;Vente;26000;29;A;RUE BUFFON;1371;75005;75105;Paris 5e Arrondissement;75;;;75105000AQ0008;;;94;;;;;;;;;;1;2;Appartement;35;2;;;;;;2.360951;48.841791
2020-817038;2020-12-01;000001;Vente;2313600;15;;QUAI DE MONTEBELLO;6472;75005;75105;Paris 5e Arrondissement;75;;;75105000BQ0069;;;15;123.08;37;;;;;;;;2;2;Appartement;130;5;;;;;;2.348796;48.851869
2020-817038;2020-12-01;000001;Vente;2313600;14;;RUE DE LA BUCHERIE;1357;75005;75105;Paris 5e Arrondissement;75;;;75105000BQ0069;;;31;;;;;;;;;;1;3;Dépendance;;0;;;;;;2.348796;48.851869
2020-817043;2020-12-11;000001;Vente;1000000;3;;RUE CLOTAIRE;2143;75005;75105;Paris 5e Arrondissement;75;;;75105000BK0037;;;29;;5;77.1;;;;;;;2;2;Appartement;50;2;;;;;;2.344853;48.84558
2020-817043;2020-12-11;000001;Vente;1000000;3;;RUE CLOTAIRE;2143;75005;75105;Paris 5e Arrondissement;75;;;75105000BK0037;;;29;;5;77.1;;;;;;;2;4;Local industriel. commercial ou assimilé;75;0;;;;;;2.344853;48.84558
2020-817046;2020-12-15;000001;Vente;780000;282;;RUE SAINT JACQUES;8648;75005;75105;Paris 5e Arrondissement;75;;;75105000BG0050;;;6;;72;;;;;;;;2;2;Appartement;61;3;;;;;;2.340889;48.841655
2020-817051;2020-11-20;000001;Vente;130000;111;;BD SAINT MICHEL;8705;75005;75105;Paris 5e Arrondissement;75;;;75105000BG0005;;;16;;19;;;;;;;;2;3;Dépendance;;0;;;;;;2.339023;48.843411
